{
  "北海道": {
    "２３０ルスツ": {
      "name": "２３０ルスツ",
      "lat": "42.44.15",
      "lng": "140.53.17",
      "park": "95",
      "address": "北海道虻田郡留寿都村字留寿都127"
    },
    "あいおい": {
      "name": "あいおい",
      "lat": "43.32.35",
      "lng": "143.59.04",
      "park": "105",
      "address": "北海道網走郡津別町字相生"
    },
    "愛ランド湧別": {
      "name": "愛ランド湧別",
      "lat": "44.07.42",
      "lng": "143.43.23",
      "park": "208",
      "address": "北海道紋別郡湧別町字志撫子6-2"
    },
    "あかいがわ": {
      "name": "あかいがわ",
      "lat": "43.02.56",
      "lng": "140.50.53",
      "park": "70",
      "address": "北海道余市郡赤井川村都190-16"
    },
    "阿寒丹頂の里": {
      "name": "阿寒丹頂の里",
      "lat": "43.08.28",
      "lng": "144.09.03",
      "park": "43",
      "address": "北海道釧路市阿寒町舌辛原野23線38"
    },
    "あさひかわ": {
      "name": "あさひかわ",
      "lat": "43.45.27",
      "lng": "142.21.08",
      "park": "72",
      "address": "北海道旭川市神楽4条6-1-12"
    },
    "あしょろ銀河ホール２１": {
      "name": "あしょろ銀河ホール２１",
      "lat": "43.14.31",
      "lng": "143.33.01",
      "park": "61",
      "address": "北海道足寄郡足寄町北1条1丁目"
    },
    "足寄湖": {
      "name": "足寄湖",
      "lat": "43.14.59",
      "lng": "143.29.04",
      "park": "78",
      "address": "北海道足寄郡足寄町中矢673-1"
    },
    "厚岸グルメパーク": {
      "name": "厚岸グルメパーク",
      "lat": "43.03.18",
      "lng": "144.50.53",
      "park": "115",
      "address": "北海道厚岸郡厚岸町住の江町3-164"
    },
    "あっさぶ": {
      "name": "あっさぶ",
      "lat": "41.54.51",
      "lng": "140.13.11",
      "park": "80",
      "address": "北海道桧山郡厚沢部町緑町72-1"
    },
    "あぷた": {
      "name": "あぷた",
      "lat": "42.31.35",
      "lng": "140.46.56",
      "park": "57",
      "address": "北海道虻田郡洞爺湖町入江84-2"
    },
    "いわない": {
      "name": "いわない",
      "lat": "42.58.52",
      "lng": "140.31.13",
      "park": "120",
      "address": "北海道岩内郡岩内町万代46-1"
    },
    "うたしないチロルの湯": {
      "name": "うたしないチロルの湯",
      "lat": "43.30.03",
      "lng": "142.00.34",
      "park": "71",
      "address": "北海道歌志内市字中村72-2"
    },
    "ウトナイ湖": {
      "name": "ウトナイ湖",
      "lat": "42.41.51",
      "lng": "141.41.54",
      "park": "105",
      "address": "北海道苫小牧市植苗156-30"
    },
    "うとろ・シリエトク": {
      "name": "うとろ・シリエトク",
      "lat": "44.04.00",
      "lng": "144.59.41",
      "park": "184",
      "address": "北海道斜里郡斜里町ウトロ西186-8"
    },
    "うらほろ": {
      "name": "うらほろ",
      "lat": "42.48.41",
      "lng": "143.40.03",
      "park": "81",
      "address": "北海道十勝郡浦幌町北町16-3"
    },
    "うりまく": {
      "name": "うりまく",
      "lat": "43.10.02",
      "lng": "143.01.44",
      "park": "90",
      "address": "北海道河東郡鹿追町瓜幕西3-1外"
    },
    "江差": {
      "name": "江差",
      "lat": "41.53.32",
      "lng": "140.08.34",
      "park": "26",
      "address": "北海道桧山郡江差町尾山町1"
    },
    "絵本の里けんぶち": {
      "name": "絵本の里けんぶち",
      "lat": "44.05.29",
      "lng": "142.23.41",
      "park": "56",
      "address": "北海道上川郡剣淵町東町2420"
    },
    "おうむ": {
      "name": "おうむ",
      "lat": "44.34.51",
      "lng": "142.57.49",
      "park": "48",
      "address": "北海道紋別郡雄武町字雄武1885-14"
    },
    "オーロラタウン９３りくべつ": {
      "name": "オーロラタウン９３りくべつ",
      "lat": "43.27.54",
      "lng": "143.44.47",
      "park": "42",
      "address": "北海道足寄郡陸別町大通"
    },
    "おこっぺ": {
      "name": "おこっぺ",
      "lat": "44.28.02",
      "lng": "143.07.15",
      "park": "93",
      "address": "北海道紋別郡興部町幸町"
    },
    "オスコイ！かもえない": {
      "name": "オスコイ！かもえない",
      "lat": "43.09.46",
      "lng": "140.23.22",
      "park": "34",
      "address": "北海道古宇郡神恵内村赤石村字大森292-1"
    },
    "おだいとう": {
      "name": "おだいとう",
      "lat": "43.31.51",
      "lng": "145.14.27",
      "park": "56",
      "address": "北海道野付郡別海町尾岱沼5-27"
    },
    "おといねっぷ": {
      "name": "おといねっぷ",
      "lat": "44.43.36",
      "lng": "142.15.42",
      "park": "37",
      "address": "北海道中川郡音威子府村音威子府155"
    },
    "おとふけ": {
      "name": "おとふけ",
      "lat": "42.58.27",
      "lng": "143.12.41",
      "park": "55",
      "address": "北海道河東郡音更町木野大通西19-5"
    },
    "おびら鰊番屋": {
      "name": "おびら鰊番屋",
      "lat": "44.08.05",
      "lng": "141.39.31",
      "park": "81",
      "address": "北海道留萌郡小平町字鬼鹿広富48-1"
    },
    "オホーツク紋別": {
      "name": "オホーツク紋別",
      "lat": "44.19.33",
      "lng": "143.22.44",
      "park": "130",
      "address": "北海道紋別市元紋別11"
    },
    "おんねゆ温泉": {
      "name": "おんねゆ温泉",
      "lat": "43.45.04",
      "lng": "143.30.16",
      "park": "120",
      "address": "北海道北見市留辺蘂町松山1-4"
    },
    "香りの里たきのうえ": {
      "name": "香りの里たきのうえ",
      "lat": "44.11.40",
      "lng": "143.05.41",
      "park": "44",
      "address": "北海道紋別郡滝上町旭町"
    },
    "鐘のなるまち・ちっぷべつ": {
      "name": "鐘のなるまち・ちっぷべつ",
      "lat": "43.45.46",
      "lng": "141.58.13",
      "park": "204",
      "address": "北海道雨竜郡秩父別町2085"
    },
    "上ノ国もんじゅ": {
      "name": "上ノ国もんじゅ",
      "lat": "41.48.21",
      "lng": "140.05.55",
      "park": "50",
      "address": "北海道桧山郡上ノ国町字原歌3"
    },
    "かみゆうべつ温泉チューリップの湯": {
      "name": "かみゆうべつ温泉チューリップの湯",
      "lat": "44.10.55",
      "lng": "143.35.55",
      "park": "230",
      "address": "北海道紋別郡上湧別町中湧別3020-1"
    },
    "北前船　松前": {
      "name": "北前船　松前",
      "lat": "41.25.26",
      "lng": "140.06.39",
      "park": "102",
      "address": "北海道松前郡松前町唐津379"
    },
    "ぐるっとパノラマ美幌峠": {
      "name": "ぐるっとパノラマ美幌峠",
      "lat": "43.38.46",
      "lng": "144.15.06",
      "park": "138",
      "address": "北海道網走郡美幌町字古梅"
    },
    "くろまつない": {
      "name": "くろまつない",
      "lat": "42.40.13",
      "lng": "140.23.01",
      "park": "61",
      "address": "北海道寿都郡黒松内町字白井川8-10"
    },
    "コスモール大樹": {
      "name": "コスモール大樹",
      "lat": "42.29.14",
      "lng": "143.16.37",
      "park": "184",
      "address": "北海道広尾郡大樹町西本通98"
    },
    "サーモンパーク千歳": {
      "name": "サーモンパーク千歳",
      "lat": "42.49.52",
      "lng": "141.39.47",
      "park": "197",
      "address": "北海道千歳市花園2"
    },
    "サラブレッドロード新冠": {
      "name": "サラブレッドロード新冠",
      "lat": "42.21.26",
      "lng": "142.19.10",
      "park": "109",
      "address": "北海道新冠郡新冠町中央町1-4"
    },
    "さらべつ": {
      "name": "さらべつ",
      "lat": "42.37.50",
      "lng": "143.16.32",
      "park": "74",
      "address": "北海道河西郡更別村字弘和464-1"
    },
    "さるふつ公園": {
      "name": "さるふつ公園",
      "lat": "45.19.37",
      "lng": "142.10.52",
      "park": "140",
      "address": "北海道宗谷郡猿払村浜鬼志別214-7"
    },
    "サロマ湖": {
      "name": "サロマ湖",
      "lat": "44.05.52",
      "lng": "143.49.41",
      "park": "53",
      "address": "北海道常呂郡佐呂間町字浪速121-3"
    },
    "サンフラワー北竜": {
      "name": "サンフラワー北竜",
      "lat": "43.44.53",
      "lng": "141.52.47",
      "park": "126",
      "address": "北海道雨竜郡北竜町字板谷163-2"
    },
    "シェルプラザ・港": {
      "name": "シェルプラザ・港",
      "lat": "42.52.40",
      "lng": "140.22.25",
      "park": "37",
      "address": "北海道磯谷郡蘭越町港町1402-2"
    },
    "しかおい": {
      "name": "しかおい",
      "lat": "43.05.45",
      "lng": "142.59.33",
      "park": "166",
      "address": "北海道河東郡鹿追町東町3-2"
    },
    "しかべ間歇泉公園": {
      "name": "しかべ間歇泉公園",
      "lat": "42.01.34",
      "lng": "140.50.03",
      "park": "49",
      "address": "北海道茅部郡鹿部町鹿部18-1"
    },
    "自然体感しむかっぷ": {
      "name": "自然体感しむかっぷ",
      "lat": "42.58.35",
      "lng": "142.24.04",
      "park": "130",
      "address": "北海道勇払郡占冠村字中央"
    },
    "しほろ温泉": {
      "name": "しほろ温泉",
      "lat": "43.08.11",
      "lng": "143.22.18",
      "park": "116",
      "address": "北海道河東郡士幌町下居辺西2線134"
    },
    "しゃり": {
      "name": "しゃり",
      "lat": "43.54.33",
      "lng": "144.40.06",
      "park": "23",
      "address": "北海道斜里郡斜里町本町37"
    },
    "樹海ロード日高": {
      "name": "樹海ロード日高",
      "lat": "42.52.28",
      "lng": "142.26.45",
      "park": "147",
      "address": "北海道沙流郡日高町本町東1-298-1"
    },
    "縄文ロマン　南かやべ": {
      "name": "縄文ロマン　南かやべ",
      "lat": "41.55.31",
      "lng": "140.56.54",
      "park": "40",
      "address": "北海道函館市臼尻町551-1"
    },
    "しらたき": {
      "name": "しらたき",
      "lat": "43.52.03",
      "lng": "143.04.48",
      "park": "35",
      "address": "北海道紋別郡遠軽町奥白滝"
    },
    "しらぬか恋問": {
      "name": "しらぬか恋問",
      "lat": "42.59.25",
      "lng": "144.12.07",
      "park": "66",
      "address": "北海道白糠郡白糠町コイトイ40-3"
    },
    "しりうち": {
      "name": "しりうち",
      "lat": "41.35.56",
      "lng": "140.20.24",
      "park": "50",
      "address": "北海道上磯郡知内町字湯の里48-13"
    },
    "知床・らうす": {
      "name": "知床・らうす",
      "lat": "44.00.54",
      "lng": "145.11.46",
      "park": "30",
      "address": "北海道目梨郡羅臼町本町361-1"
    },
    "しんしのつ": {
      "name": "しんしのつ",
      "lat": "43.12.42",
      "lng": "141.38.47",
      "park": "150",
      "address": "北海道石狩郡新篠津村第45線北2"
    },
    "スタープラザ芦別": {
      "name": "スタープラザ芦別",
      "lat": "43.31.22",
      "lng": "142.11.35",
      "park": "84",
      "address": "北海道芦別市北4条東1-1"
    },
    "ステラ★ほんべつ": {
      "name": "ステラ★ほんべつ",
      "lat": "43.07.24",
      "lng": "143.37.02",
      "park": "104",
      "address": "北海道中川郡本別町北3丁目1-1"
    },
    "スペース・アップルよいち": {
      "name": "スペース・アップルよいち",
      "lat": "43.11.11",
      "lng": "140.47.33",
      "park": "110",
      "address": "北海道余市郡余市町黒川町"
    },
    "スワン４４ねむろ": {
      "name": "スワン４４ねむろ",
      "lat": "43.15.33",
      "lng": "145.26.33",
      "park": "76",
      "address": "北海道根室市酪陽1"
    },
    "そうべつ情報館ｉ": {
      "name": "そうべつ情報館ｉ",
      "lat": "42.33.23",
      "lng": "140.54.09",
      "park": "95",
      "address": "北海道有珠郡壮瞥町字滝之町384-1"
    },
    "たきかわ": {
      "name": "たきかわ",
      "lat": "43.37.16",
      "lng": "141.56.43",
      "park": "58",
      "address": "北海道滝川市江部乙町東11-13"
    },
    "だて歴史の杜": {
      "name": "だて歴史の杜",
      "lat": "42.28.08",
      "lng": "140.52.39",
      "park": "102",
      "address": "北海道伊達市梅本町57-1"
    },
    "忠類": {
      "name": "忠類",
      "lat": "42.33.23",
      "lng": "143.18.11",
      "park": "112",
      "address": "北海道中川郡幕別町忠類白銀町383"
    },
    "つど〜る・プラザ・さわら": {
      "name": "つど〜る・プラザ・さわら",
      "lat": "42.07.22",
      "lng": "140.40.15",
      "park": "19",
      "address": "北海道茅部郡森町字砂原2-358-1"
    },
    "つるぬま": {
      "name": "つるぬま",
      "lat": "43.26.57",
      "lng": "141.50.22",
      "park": "80",
      "address": "北海道樺戸郡浦臼町字キナウスナイ186-90"
    },
    "てしお": {
      "name": "てしお",
      "lat": "44.52.56",
      "lng": "141.45.06",
      "park": "51",
      "address": "北海道天塩郡天塩町新開通4-7634-2"
    },
    "てっくいランド大成": {
      "name": "てっくいランド大成",
      "lat": "42.12.36",
      "lng": "139.52.49",
      "park": "33",
      "address": "北海道久遠郡せたな町大成区平浜378"
    },
    "田園の里うりゅう": {
      "name": "田園の里うりゅう",
      "lat": "43.39.36",
      "lng": "141.53.52",
      "park": "54",
      "address": "北海道雨竜郡雨竜町字満寿28-3"
    },
    "とうま": {
      "name": "とうま",
      "lat": "43.50.30",
      "lng": "142.29.35",
      "park": "50",
      "address": "北海道上川郡当麻町字園別2区"
    },
    "とうや湖": {
      "name": "とうや湖",
      "lat": "42.39.43",
      "lng": "140.49.31",
      "park": "57",
      "address": "北海道虻田郡洞爺湖町香川9-4"
    },
    "とようら": {
      "name": "とようら",
      "lat": "42.34.30",
      "lng": "140.43.34",
      "park": "38",
      "address": "北海道虻田郡豊浦町字旭町65-8"
    },
    "なかがわ": {
      "name": "なかがわ",
      "lat": "44.47.58",
      "lng": "142.04.16",
      "park": "52",
      "address": "北海道中川郡中川町字誉498-1"
    },
    "なかさつない": {
      "name": "なかさつない",
      "lat": "42.41.23",
      "lng": "143.07.50",
      "park": "60",
      "address": "北海道河西郡中札内村大通り南7丁目(カントリープラザ)"
    },
    "なとわ・えさん": {
      "name": "なとわ・えさん",
      "lat": "41.46.37",
      "lng": "141.06.19",
      "park": "116",
      "address": "北海道函館市日ノ浜町31-2"
    },
    "にしおこっぺ花夢": {
      "name": "にしおこっぺ花夢",
      "lat": "44.20.01",
      "lng": "142.52.19",
      "park": "70",
      "address": "北海道紋別郡西興部村字上興部37"
    },
    "ニセコビュープラザ": {
      "name": "ニセコビュープラザ",
      "lat": "42.47.49",
      "lng": "140.42.21",
      "park": "62",
      "address": "北海道虻田郡ニセコ町字元町77-10"
    },
    "ハウスヤルビ奈井江": {
      "name": "ハウスヤルビ奈井江",
      "lat": "43.25.51",
      "lng": "141.53.33",
      "park": "63",
      "address": "北海道空知郡奈井江町北町1区"
    },
    "はなやか（葉菜野花）小清水": {
      "name": "はなやか（葉菜野花）小清水",
      "lat": "43.55.52",
      "lng": "144.27.26",
      "park": "33",
      "address": "北海道斜里郡小清水町字浜小清水474-7"
    },
    "花ロードえにわ": {
      "name": "花ロードえにわ",
      "lat": "42.53.41",
      "lng": "141.35.22",
      "park": "65",
      "address": "北海道恵庭市南島松817-18"
    },
    "パパスランドさっつる": {
      "name": "パパスランドさっつる",
      "lat": "43.47.17",
      "lng": "144.32.19",
      "park": "50",
      "address": "北海道斜里郡清里町神威1071"
    },
    "ピア２１しほろ": {
      "name": "ピア２１しほろ",
      "lat": "43.09.05",
      "lng": "143.14.47",
      "park": "47",
      "address": "北海道河東郡士幌町字士幌西2線147"
    },
    "びえい「丘のくら」": {
      "name": "びえい「丘のくら」",
      "lat": "43.35.23",
      "lng": "142.28.03",
      "park": "31",
      "address": "北海道上川郡美瑛町本町1-9-21"
    },
    "ひがしかわ「道草館」": {
      "name": "ひがしかわ「道草館」",
      "lat": "43.41.41",
      "lng": "142.30.45",
      "park": "34",
      "address": "北海道上川郡東川町東町1-1-15"
    },
    "びふか": {
      "name": "びふか",
      "lat": "44.33.23",
      "lng": "142.19.26",
      "park": "218",
      "address": "北海道中川郡美深町大手307-1"
    },
    "ピンネシリ": {
      "name": "ピンネシリ",
      "lat": "44.52.31",
      "lng": "142.13.02",
      "park": "26",
      "address": "北海道枝幸郡中頓別町ピンネシリ"
    },
    "フォーレスト２７６大滝": {
      "name": "フォーレスト２７６大滝",
      "lat": "42.41.44",
      "lng": "141.08.02",
      "park": "120",
      "address": "北海道伊達市大滝区三階滝町637"
    },
    "富士見": {
      "name": "富士見",
      "lat": "44.42.42",
      "lng": "141.47.51",
      "park": "174",
      "address": "北海道天塩郡遠別町富士見46-1"
    },
    "風Ｗとままえ": {
      "name": "風Ｗとままえ",
      "lat": "44.18.40",
      "lng": "141.39.38",
      "park": "92",
      "address": "北海道苫前郡苫前町苫前119-1"
    },
    "望羊中山": {
      "name": "望羊中山",
      "lat": "42.51.12",
      "lng": "141.06.01",
      "park": "120",
      "address": "北海道虻田郡喜茂別町川上345"
    },
    "ほっと・はぼろ": {
      "name": "ほっと・はぼろ",
      "lat": "44.21.54",
      "lng": "141.42.37",
      "park": "193",
      "address": "北海道苫前郡羽幌町北3条1丁目"
    },
    "マオイの丘公園": {
      "name": "マオイの丘公園",
      "lat": "42.56.51",
      "lng": "141.43.13",
      "park": "102",
      "address": "北海道夕張郡長沼町東10線南7"
    },
    "摩周温泉": {
      "name": "摩周温泉",
      "lat": "43.29.24",
      "lng": "144.27.06",
      "park": "23",
      "address": "北海道川上郡弟子屈町湯の島3-3-40"
    },
    "真狩フラワーセンター": {
      "name": "真狩フラワーセンター",
      "lat": "42.45.34",
      "lng": "140.48.42",
      "park": "150",
      "address": "北海道虻田郡真狩村字光8-3"
    },
    "マリーンアイランド岡島": {
      "name": "マリーンアイランド岡島",
      "lat": "44.52.34",
      "lng": "142.38.09",
      "park": "73",
      "address": "北海道枝幸郡枝幸町字岡島1978-2"
    },
    "まるせっぷ": {
      "name": "まるせっぷ",
      "lat": "43.59.39",
      "lng": "143.19.57",
      "park": "63",
      "address": "北海道紋別郡遠軽町丸瀬布元町42-2"
    },
    "三笠": {
      "name": "三笠",
      "lat": "43.14.39",
      "lng": "141.48.30",
      "park": "120",
      "address": "北海道三笠市岡山1056-1"
    },
    "みそぎの郷　きこない": {
      "name": "みそぎの郷　きこない",
      "lat": "41.40.31",
      "lng": "140.26.20",
      "park": "54",
      "address": "北海道上磯郡木古内町本町338-14"
    },
    "みたら室蘭": {
      "name": "みたら室蘭",
      "lat": "42.20.22",
      "lng": "140.56.50",
      "park": "20",
      "address": "北海道室蘭市祝津町4-16-5"
    },
    "みついし": {
      "name": "みついし",
      "lat": "42.13.06",
      "lng": "142.38.17",
      "park": "271",
      "address": "北海道日高郡新ひだか町三石鳧舞161-2"
    },
    "みなとま〜れ寿都": {
      "name": "みなとま〜れ寿都",
      "lat": "42.47.34",
      "lng": "140.14.07",
      "park": "39",
      "address": "北海道寿都郡寿都町大磯町29-1"
    },
    "南ふらの": {
      "name": "南ふらの",
      "lat": "43.10.02",
      "lng": "142.34.35",
      "park": "120",
      "address": "北海道空知郡南富良野町幾寅687-1"
    },
    "むかわ四季の館": {
      "name": "むかわ四季の館",
      "lat": "42.34.17",
      "lng": "141.55.43",
      "park": "206",
      "address": "北海道勇払郡むかわ町美幸3-3-1"
    },
    "名水の郷きょうごく": {
      "name": "名水の郷きょうごく",
      "lat": "42.51.24",
      "lng": "140.52.27",
      "park": "298",
      "address": "北海道虻田郡京極町川西45-1"
    },
    "メルヘンの丘めまんべつ": {
      "name": "メルヘンの丘めまんべつ",
      "lat": "43.54.54",
      "lng": "144.11.33",
      "park": "100",
      "address": "北海道網走郡大空町女満別昭和96"
    },
    "もち米の里☆なよろ": {
      "name": "もち米の里☆なよろ",
      "lat": "44.17.06",
      "lng": "142.25.03",
      "park": "82",
      "address": "北海道名寄市風連町西町334-1"
    },
    "森と湖の里ほろかない": {
      "name": "森と湖の里ほろかない",
      "lat": "44.06.44",
      "lng": "142.08.35",
      "park": "42",
      "address": "北海道雨竜郡幌加内町字政和第一"
    },
    "夕張メロード": {
      "name": "夕張メロード",
      "lat": "42.56.04",
      "lng": "142.02.31",
      "park": "35",
      "address": "北海道夕張市紅葉山529"
    },
    "ＹＯＵ・遊・もり": {
      "name": "ＹＯＵ・遊・もり",
      "lat": "42.05.49",
      "lng": "140.34.17",
      "park": "60",
      "address": "北海道茅部郡森町字上台町326-18"
    },
    "横綱の里ふくしま": {
      "name": "横綱の里ふくしま",
      "lat": "41.28.37",
      "lng": "140.15.33",
      "park": "39",
      "address": "北海道松前郡福島町字福島143-1"
    },
    "よってけ！島牧": {
      "name": "よってけ！島牧",
      "lat": "42.41.03",
      "lng": "140.01.00",
      "park": "47",
      "address": "北海道島牧郡島牧村字千走"
    },
    "ライスランドふかがわ": {
      "name": "ライスランドふかがわ",
      "lat": "43.41.50",
      "lng": "142.04.28",
      "park": "80",
      "address": "北海道深川市音江町字広里59-7"
    },
    "らんこし・ふるさとの丘": {
      "name": "らんこし・ふるさとの丘",
      "lat": "42.45.35",
      "lng": "140.28.57",
      "park": "20",
      "address": "北海道磯谷郡蘭越町字相生969"
    },
    "流氷街道網走": {
      "name": "流氷街道網走",
      "lat": "44.01.11",
      "lng": "144.16.40",
      "park": "123",
      "address": "北海道網走市南3条東4丁目"
    },
    "ルート２２９元和台": {
      "name": "ルート２２９元和台",
      "lat": "42.00.32",
      "lng": "140.06.36",
      "park": "49",
      "address": "北海道爾志郡乙部町字元和169"
    },
    "☆ロマン街道しょさんべつ": {
      "name": "☆ロマン街道しょさんべつ",
      "lat": "44.33.39",
      "lng": "141.46.53",
      "park": "132",
      "address": "北海道苫前郡初山別村豊岬153-1"
    },
    "わっかない": {
      "name": "わっかない",
      "lat": "45.24.55",
      "lng": "141.40.53",
      "park": "101",
      "address": "北海道稚内市開運2"
    }
  },
  "青森県": {
    "浅虫温泉": {
      "name": "浅虫温泉",
      "lat": "40.53.21",
      "lng": "140.51.54",
      "park": "81",
      "address": "青森県青森市浅虫字蛍谷341-19"
    },
    "いかりがせき": {
      "name": "いかりがせき",
      "lat": "40.28.44",
      "lng": "140.37.36",
      "park": "133",
      "address": "青森県平川市碇ヶ関碇石13-1"
    },
    "いなかだて": {
      "name": "いなかだて",
      "lat": "40.37.51",
      "lng": "140.34.52",
      "park": "197",
      "address": "青森県南津軽郡田舎館村高樋字八幡10"
    },
    "いまべつ": {
      "name": "いまべつ",
      "lat": "41.08.35",
      "lng": "140.31.03",
      "park": "43",
      "address": "青森県東津軽郡今別町大川平字清川87-1"
    },
    "奥入瀬": {
      "name": "奥入瀬",
      "lat": "40.34.58",
      "lng": "141.07.17",
      "park": "350",
      "address": "青森県十和田市奥瀬字堰道39-1"
    },
    "おがわら湖": {
      "name": "おがわら湖",
      "lat": "40.43.32",
      "lng": "141.16.42",
      "park": "104",
      "address": "青森県上北郡東北町上野字南谷地122"
    },
    "かわうち湖": {
      "name": "かわうち湖",
      "lat": "41.16.04",
      "lng": "140.53.30",
      "park": "55",
      "address": "青森県むつ市川内町福浦山314"
    },
    "こどまり": {
      "name": "こどまり",
      "lat": "41.08.33",
      "lng": "140.19.25",
      "park": "106",
      "address": "青森県北津軽郡中泊町小泊折腰内45"
    },
    "さんのへ": {
      "name": "さんのへ",
      "lat": "40.23.04",
      "lng": "141.15.36",
      "park": "40",
      "address": "青森県三戸郡三戸町川守田字西張渡39-1"
    },
    "しちのへ": {
      "name": "しちのへ",
      "lat": "40.42.51",
      "lng": "141.09.30",
      "park": "87",
      "address": "青森県上北郡七戸町荒熊内67-94"
    },
    "十三湖高原": {
      "name": "十三湖高原",
      "lat": "41.02.34",
      "lng": "140.23.18",
      "park": "45",
      "address": "青森県五所川原市相内実取287-1106"
    },
    "しんごう": {
      "name": "しんごう",
      "lat": "40.25.37",
      "lng": "141.04.21",
      "park": "225",
      "address": "青森県三戸郡新郷村戸来字雨池11-2"
    },
    "たいらだて": {
      "name": "たいらだて",
      "lat": "41.10.19",
      "lng": "140.38.40",
      "park": "119",
      "address": "青森県東津軽郡外ヶ浜町字平舘太郎右エ門沢1-3"
    },
    "つるた": {
      "name": "つるた",
      "lat": "40.44.03",
      "lng": "140.26.47",
      "park": "109",
      "address": "青森県北津軽郡鶴田町境字里見176-1"
    },
    "とわだ": {
      "name": "とわだ",
      "lat": "40.34.19",
      "lng": "141.16.05",
      "park": "213",
      "address": "青森県十和田市伝法寺字平窪37-2"
    },
    "なみおか": {
      "name": "なみおか",
      "lat": "40.42.57",
      "lng": "140.35.01",
      "park": "90",
      "address": "青森県青森市浪岡女鹿沢字野尻2-3"
    },
    "なんごう": {
      "name": "なんごう",
      "lat": "40.24.14",
      "lng": "141.26.02",
      "park": "141",
      "address": "青森県八戸市南郷区大字中野字舘野4-4"
    },
    "虹の湖": {
      "name": "虹の湖",
      "lat": "40.34.42",
      "lng": "140.41.28",
      "park": "270",
      "address": "青森県黒石市沖浦山神1-5"
    },
    "はしかみ": {
      "name": "はしかみ",
      "lat": "40.27.21",
      "lng": "141.36.43",
      "park": "83",
      "address": "青森県三戸郡階上町道仏字耳ヶ吠3-3"
    },
    "ひろさき": {
      "name": "ひろさき",
      "lat": "40.33.08",
      "lng": "140.33.09",
      "park": "44",
      "address": "青森県弘前市石川字泉田63-1"
    },
    "ふかうら": {
      "name": "ふかうら",
      "lat": "40.44.30",
      "lng": "140.00.16",
      "park": "44",
      "address": "青森県西津軽郡深浦町風合瀬字上砂子川144-1"
    },
    "みさわ": {
      "name": "みさわ",
      "lat": "40.47.03",
      "lng": "141.21.56",
      "park": "144",
      "address": "青森県三沢市谷地頭4-298-652"
    },
    "みんまや": {
      "name": "みんまや",
      "lat": "41.15.05",
      "lng": "140.21.01",
      "park": "190",
      "address": "青森県東津軽郡外ケ浜町三厩龍浜99"
    },
    "もりた": {
      "name": "もりた",
      "lat": "40.46.56",
      "lng": "140.19.31",
      "park": "54",
      "address": "青森県つがる市森田町床舞稚桜4-1"
    },
    "よこはま": {
      "name": "よこはま",
      "lat": "41.04.52",
      "lng": "141.15.38",
      "park": "56",
      "address": "青森県上北郡横浜町字林ノ脇79-12"
    },
    "ろくのへ": {
      "name": "ろくのへ",
      "lat": "40.36.13",
      "lng": "141.19.42",
      "park": "31",
      "address": "青森県上北郡六戸町犬落瀬後田87"
    },
    "わきのさわ": {
      "name": "わきのさわ",
      "lat": "41.09.55",
      "lng": "140.48.30",
      "park": "32",
      "address": "青森県むつ市脇野沢七引201-5"
    }
  },
  "岩手県": {
    "石神の丘": {
      "name": "石神の丘",
      "lat": "39.57.57",
      "lng": "141.13.02",
      "park": "72",
      "address": "岩手県岩手郡岩手町五日市10-121-20"
    },
    "石鳥谷": {
      "name": "石鳥谷",
      "lat": "39.28.49",
      "lng": "141.08.44",
      "park": "102",
      "address": "岩手県花巻市石鳥谷町中寺林第7地割17-3"
    },
    "いわいずみ": {
      "name": "いわいずみ",
      "lat": "39.50.23",
      "lng": "141.51.59",
      "park": "37",
      "address": "岩手県下閉伊郡岩泉町乙茂字乙茂90"
    },
    "おおの": {
      "name": "おおの",
      "lat": "40.16.30",
      "lng": "141.40.09",
      "park": "104",
      "address": "岩手県九戸郡洋野町大野58-12-30"
    },
    "おりつめ": {
      "name": "おりつめ",
      "lat": "40.14.44",
      "lng": "141.25.13",
      "park": "55",
      "address": "岩手県九戸郡九戸村山屋第２地割28-1"
    },
    "釜石仙人峠": {
      "name": "釜石仙人峠",
      "lat": "39.15.02",
      "lng": "141.47.10",
      "park": "41",
      "address": "岩手県釜石市甲子町第7地割155-4"
    },
    "かわさき": {
      "name": "かわさき",
      "lat": "38.53.45",
      "lng": "141.16.33",
      "park": "84",
      "address": "岩手県一関市川崎町薄衣字法道地42-3"
    },
    "錦秋湖": {
      "name": "錦秋湖",
      "lat": "39.17.51",
      "lng": "140.52.45",
      "park": "75",
      "address": "岩手県和賀郡西和賀町杉名畑44地割264"
    },
    "区界高原": {
      "name": "区界高原",
      "lat": "39.38.55",
      "lng": "141.21.26",
      "park": "64",
      "address": "岩手県下閉伊郡川井村田代第2地割434-1"
    },
    "くじ": {
      "name": "くじ",
      "lat": "40.11.13",
      "lng": "141.46.08",
      "park": "58",
      "address": "岩手県久慈市中町2-5-6"
    },
    "くずまき高原": {
      "name": "くずまき高原",
      "lat": "39.58.54",
      "lng": "141.20.36",
      "park": "88",
      "address": "岩手県岩手郡葛巻町葛巻第39地割159-3"
    },
    "厳美渓": {
      "name": "厳美渓",
      "lat": "38.56.36",
      "lng": "141.03.23",
      "park": "191",
      "address": "岩手県一関市厳美町字沖野々220-1"
    },
    "さんりく": {
      "name": "さんりく",
      "lat": "39.07.08",
      "lng": "141.48.08",
      "park": "53",
      "address": "岩手県大船渡市三陸町越喜来字井戸洞95-27"
    },
    "雫石あねっこ": {
      "name": "雫石あねっこ",
      "lat": "39.42.13",
      "lng": "140.52.41",
      "park": "92",
      "address": "岩手県岩手郡雫石町橋場第１地割字坂本118-10"
    },
    "白樺の村やまがた": {
      "name": "白樺の村やまがた",
      "lat": "40.08.53",
      "lng": "141.34.38",
      "park": "44",
      "address": "岩手県久慈市山形町川井第8地割12-1"
    },
    "紫波": {
      "name": "紫波",
      "lat": "39.33.11",
      "lng": "141.12.35",
      "park": "45",
      "address": "岩手県紫波郡紫波町遠山字松原7-1"
    },
    "高田松原": {
      "name": "高田松原",
      "lat": "39.00.19",
      "lng": "141.37.59",
      "park": "375",
      "address": "岩手県陸前高田市高田町古川28-5"
    },
    "種山ヶ原": {
      "name": "種山ヶ原",
      "lat": "39.10.37",
      "lng": "141.23.58",
      "park": "38",
      "address": "岩手県気仙郡住田町世田米字子飼沢30-29"
    },
    "たのはた": {
      "name": "たのはた",
      "lat": "39.54.24",
      "lng": "141.54.22",
      "park": "115",
      "address": "岩手県下閉伊郡田野畑村菅窪223-7"
    },
    "たろう": {
      "name": "たろう",
      "lat": "39.45.39",
      "lng": "141.58.10",
      "park": "40",
      "address": "岩手県宮古市田老重津部34-2"
    },
    "とうわ": {
      "name": "とうわ",
      "lat": "39.22.48",
      "lng": "141.13.32",
      "park": "71",
      "address": "岩手県花巻市東和町安俵6区147-2"
    },
    "遠野風の丘": {
      "name": "遠野風の丘",
      "lat": "39.19.40",
      "lng": "141.30.15",
      "park": "95",
      "address": "岩手県遠野市綾織町新里8地割2-1"
    },
    "にしね": {
      "name": "にしね",
      "lat": "39.52.38",
      "lng": "141.06.10",
      "park": "42",
      "address": "岩手県八幡平市大更2-154-36"
    },
    "のだ": {
      "name": "のだ",
      "lat": "40.06.47",
      "lng": "141.49.21",
      "park": "55",
      "address": "岩手県九戸郡野田村野田第31-31-1"
    },
    "はやちね": {
      "name": "はやちね",
      "lat": "39.32.02",
      "lng": "141.20.38",
      "park": "60",
      "address": "岩手県花巻市大迫町内川目第10地割30-113"
    },
    "みずさわ": {
      "name": "みずさわ",
      "lat": "39.05.29",
      "lng": "141.11.06",
      "park": "30",
      "address": "岩手県奥州市水沢区姉体町字石川原51-3"
    },
    "三田貝分校": {
      "name": "三田貝分校",
      "lat": "39.52.06",
      "lng": "141.35.36",
      "park": "40",
      "address": "岩手県下閉伊郡岩泉町門字三田貝47-2"
    },
    "みやこ": {
      "name": "みやこ",
      "lat": "39.38.10",
      "lng": "141.58.25",
      "park": "183",
      "address": "岩手県宮古市臨港通1-20"
    },
    "みやもり": {
      "name": "みやもり",
      "lat": "39.20.35",
      "lng": "141.21.17",
      "park": "89",
      "address": "岩手県遠野市宮守町下宮守30地割37-1"
    },
    "やまだ": {
      "name": "やまだ",
      "lat": "39.26.03",
      "lng": "141.58.36",
      "park": "51",
      "address": "岩手県下閉伊郡山田町船越第六地割141"
    },
    "やまびこ館": {
      "name": "やまびこ館",
      "lat": "39.38.46",
      "lng": "141.35.34",
      "park": "95",
      "address": "岩手県下閉伊郡川井村川内8-2"
    }
  },
  "宮城県": {
    "あ・ら・伊達な道の駅": {
      "name": "あ・ら・伊達な道の駅",
      "lat": "38.42.17",
      "lng": "140.50.12",
      "park": "100",
      "address": "宮城県大崎市岩出山町池月字下宮道下4-1"
    },
    "おおさと": {
      "name": "おおさと",
      "lat": "38.25.16",
      "lng": "140.59.47",
      "park": "80",
      "address": "宮城県黒川郡大郷町中村字北浦51-6"
    },
    "大谷海岸": {
      "name": "大谷海岸",
      "lat": "38.48.40",
      "lng": "141.34.14",
      "park": "56",
      "address": "宮城県本吉郡本吉町三島94-12"
    },
    "三本木": {
      "name": "三本木",
      "lat": "38.31.09",
      "lng": "140.56.31",
      "park": "46",
      "address": "宮城県大崎市三本木字大豆坂63-13"
    },
    "七ヶ宿": {
      "name": "七ヶ宿",
      "lat": "37.58.05",
      "lng": "140.30.30",
      "park": "31",
      "address": "宮城県刈田郡七ヶ宿町野沢倉山2-119"
    },
    "上品の郷": {
      "name": "上品の郷",
      "lat": "38.29.53",
      "lng": "141.17.55",
      "park": "141",
      "address": "宮城県石巻市小船越字二子北下1-1"
    },
    "津山": {
      "name": "津山",
      "lat": "38.36.59",
      "lng": "141.19.43",
      "park": "72",
      "address": "宮城県登米市津山町横山字細屋24"
    },
    "三滝堂": {
      "name": "三滝堂",
      "lat": "38.42.20",
      "lng": "141.19.52",
      "park": "81",
      "address": "宮城県登米市東和町米谷福平191-1"
    },
    "みなみかた": {
      "name": "みなみかた",
      "lat": "38.39.43",
      "lng": "141.09.51",
      "park": "78",
      "address": "宮城県登米市南方町新高石浦150-1"
    },
    "村田": {
      "name": "村田",
      "lat": "38.06.56",
      "lng": "140.43.14",
      "park": "61",
      "address": "宮城県柴田郡村田町村田北塩内41"
    },
    "米山": {
      "name": "米山",
      "lat": "38.37.27",
      "lng": "141.11.29",
      "park": "118",
      "address": "宮城県登米市米山町西野字新遠田67"
    },
    "林林館": {
      "name": "林林館",
      "lat": "38.44.23",
      "lng": "141.19.10",
      "park": "105",
      "address": "宮城県登米市東和町米川字六反33-1"
    },
    "路田里はなやま": {
      "name": "路田里はなやま",
      "lat": "38.47.30",
      "lng": "140.50.52",
      "park": "81",
      "address": "宮城県栗原市花山本沢北ノ前112-1"
    }
  },
  "秋田県": {
    "あきた港": {
      "name": "あきた港",
      "lat": "39.45.00",
      "lng": "140.03.52",
      "park": "207",
      "address": "秋田県秋田市土崎港西1-9-1"
    },
    "あに": {
      "name": "あに",
      "lat": "39.53.57",
      "lng": "140.27.37",
      "park": "36",
      "address": "秋田県北秋田市阿仁比立内字家ノ後8-1"
    },
    "岩城": {
      "name": "岩城",
      "lat": "39.32.24",
      "lng": "140.03.23",
      "park": "142",
      "address": "秋田県由利本荘市岩城内道川字新鶴潟192-43"
    },
    "おおうち": {
      "name": "おおうち",
      "lat": "39.26.24",
      "lng": "140.05.37",
      "park": "252",
      "address": "秋田県由利本荘市岩谷町字西越36"
    },
    "おおがた": {
      "name": "おおがた",
      "lat": "40.00.46",
      "lng": "139.57.18",
      "park": "82",
      "address": "秋田県南秋田郡大潟村西5-2-1"
    },
    "大館能代空港": {
      "name": "大館能代空港",
      "lat": "40.11.34",
      "lng": "140.22.32",
      "park": "448",
      "address": "秋田県北秋田市脇神字カラムシ岱21-144外"
    },
    "おがち": {
      "name": "おがち",
      "lat": "39.03.44",
      "lng": "140.27.49",
      "park": "61",
      "address": "秋田県湯沢市小野字橋本90"
    },
    "かづの": {
      "name": "かづの",
      "lat": "40.10.43",
      "lng": "140.47.21",
      "park": "320",
      "address": "秋田県鹿角市花輪字新田町11-4"
    },
    "かみおか": {
      "name": "かみおか",
      "lat": "39.31.10",
      "lng": "140.22.49",
      "park": "53",
      "address": "秋田県大仙市北楢岡字船戸187"
    },
    "かみこあに": {
      "name": "かみこあに",
      "lat": "40.03.39",
      "lng": "140.18.02",
      "park": "91",
      "address": "秋田県北秋田郡上小阿仁村小沢田字向川原66-1"
    },
    "雁の里せんなん": {
      "name": "雁の里せんなん",
      "lat": "39.22.35",
      "lng": "140.34.16",
      "park": "121",
      "address": "秋田県仙北郡美郷町金沢字下舘124"
    },
    "象潟": {
      "name": "象潟",
      "lat": "39.13.02",
      "lng": "139.54.13",
      "park": "180",
      "address": "秋田県にかほ市象潟町大塩越73-1"
    },
    "協和": {
      "name": "協和",
      "lat": "39.36.57",
      "lng": "140.21.59",
      "park": "137",
      "address": "秋田県大仙市協和荒川字新田表15-2"
    },
    "こさか七滝": {
      "name": "こさか七滝",
      "lat": "40.21.15",
      "lng": "140.47.08",
      "park": "45",
      "address": "秋田県鹿角郡小坂町上向藤原35-3"
    },
    "五城目": {
      "name": "五城目",
      "lat": "39.56.39",
      "lng": "140.08.51",
      "park": "94",
      "address": "秋田県南秋田郡五城目町富津内下山内字上広ヶ野76-1"
    },
    "ことおか": {
      "name": "ことおか",
      "lat": "40.01.10",
      "lng": "140.05.02",
      "park": "70",
      "address": "秋田県山本郡三種町鹿渡字高石野126-1"
    },
    "さんない": {
      "name": "さんない",
      "lat": "39.17.11",
      "lng": "140.37.45",
      "park": "51",
      "address": "秋田県横手市山内土渕字小目倉沢34"
    },
    "清水の里・鳥海郷": {
      "name": "清水の里・鳥海郷",
      "lat": "39.06.24",
      "lng": "140.17.41",
      "park": "88",
      "address": "秋田県由利本荘市鳥海町上笹子字堺台100"
    },
    "十文字": {
      "name": "十文字",
      "lat": "39.13.24",
      "lng": "140.31.30",
      "park": "95",
      "address": "秋田県横手市十文字町海道下21-4"
    },
    "しょうわ": {
      "name": "しょうわ",
      "lat": "39.51.43",
      "lng": "140.04.52",
      "park": "78",
      "address": "秋田県潟上市昭和豊川竜毛字山ノ下1-1"
    },
    "たかのす": {
      "name": "たかのす",
      "lat": "40.14.56",
      "lng": "140.22.44",
      "park": "150",
      "address": "秋田県北秋田市綴子大堤道下62-1"
    },
    "てんのう": {
      "name": "てんのう",
      "lat": "39.51.14",
      "lng": "140.00.47",
      "park": "481",
      "address": "秋田県潟上市天王字江川上谷地109-2"
    },
    "なかせん": {
      "name": "なかせん",
      "lat": "39.32.08",
      "lng": "140.32.12",
      "park": "84",
      "address": "秋田県大仙市長野字高畑95-1"
    },
    "にしめ": {
      "name": "にしめ",
      "lat": "39.21.36",
      "lng": "140.01.05",
      "park": "152",
      "address": "秋田県由利本荘市西目町沼田字新道下1112-2"
    },
    "はちもり": {
      "name": "はちもり",
      "lat": "40.25.08",
      "lng": "139.57.07",
      "park": "35",
      "address": "秋田県山本郡八峰町八森乙の水72-4"
    },
    "東由利": {
      "name": "東由利",
      "lat": "39.17.52",
      "lng": "140.17.21",
      "park": "107",
      "address": "秋田県由利本荘市東由利老方字畑田28"
    },
    "ひない": {
      "name": "ひない",
      "lat": "40.13.00",
      "lng": "140.35.19",
      "park": "50",
      "address": "秋田県大館市比内町扇田字新大堤下93-11"
    },
    "ふたつい": {
      "name": "ふたつい",
      "lat": "40.12.56",
      "lng": "140.15.52",
      "park": "200",
      "address": "秋田県能代市二ツ井町小繋字中島109-10"
    },
    "みねはま": {
      "name": "みねはま",
      "lat": "40.15.42",
      "lng": "140.01.53",
      "park": "53",
      "address": "秋田県山本郡八峰町峰浜沼田字ホンコ谷地147"
    },
    "やたて峠": {
      "name": "やたて峠",
      "lat": "40.25.06",
      "lng": "140.37.42",
      "park": "65",
      "address": "秋田県大館市長走字陣場311"
    }
  },
  "山形県": {
    "あさひまち": {
      "name": "あさひまち",
      "lat": "38.19.28",
      "lng": "140.10.21",
      "park": "82",
      "address": "山形県西村山郡朝日町和合北又2724"
    },
    "あつみ": {
      "name": "あつみ",
      "lat": "38.34.39",
      "lng": "139.33.42",
      "park": "130",
      "address": "山形県鶴岡市温海早田字戸ノ浦606"
    },
    "いいで": {
      "name": "いいで",
      "lat": "38.01.23",
      "lng": "139.59.53",
      "park": "174",
      "address": "山形県西置賜郡飯豊町松原1898"
    },
    "おおえ": {
      "name": "おおえ",
      "lat": "38.21.53",
      "lng": "140.13.00",
      "park": "45",
      "address": "山形県西村山郡大江町藤田218-1"
    },
    "尾花沢": {
      "name": "尾花沢",
      "lat": "38.39.14",
      "lng": "140.22.01",
      "park": "92",
      "address": "山形県尾花沢市芦沢1195-1"
    },
    "月山": {
      "name": "月山",
      "lat": "38.35.03",
      "lng": "139.52.40",
      "park": "139",
      "address": "山形県鶴岡市越中山字名平3-1"
    },
    "河北": {
      "name": "河北",
      "lat": "38.24.36",
      "lng": "140.19.55",
      "park": "50",
      "address": "山形県西村山郡河北町谷地字真木335-1"
    },
    "寒河江": {
      "name": "寒河江",
      "lat": "38.23.45",
      "lng": "140.16.28",
      "park": "330",
      "address": "山形県寒河江市八鍬川原919-6"
    },
    "庄内みかわ": {
      "name": "庄内みかわ",
      "lat": "38.46.45",
      "lng": "139.51.01",
      "park": "462",
      "address": "山形県東田川郡三川町横山字堤172-1"
    },
    "白鷹ヤナ公園": {
      "name": "白鷹ヤナ公園",
      "lat": "38.12.54",
      "lng": "140.06.02",
      "park": "135",
      "address": "山形県西置賜郡白鷹町下山661-1"
    },
    "白い森おぐに": {
      "name": "白い森おぐに",
      "lat": "38.04.09",
      "lng": "139.44.02",
      "park": "181",
      "address": "山形県西置賜郡小国町小国小坂町616-1"
    },
    "たかはた": {
      "name": "たかはた",
      "lat": "38.00.13",
      "lng": "140.13.14",
      "park": "81",
      "address": "山形県東置賜郡高畠町安久津2072-1"
    },
    "田沢": {
      "name": "田沢",
      "lat": "37.52.29",
      "lng": "139.59.15",
      "park": "32",
      "address": "山形県米沢市入田沢字上ノ代弐573-19"
    },
    "鳥海": {
      "name": "鳥海",
      "lat": "39.03.27",
      "lng": "139.52.44",
      "park": "100",
      "address": "山形県飽海郡遊佐町菅里字菅野308-1"
    },
    "天童温泉": {
      "name": "天童温泉",
      "lat": "38.21.05",
      "lng": "140.23.26",
      "park": "263",
      "address": "山形県天童市鍬ノ町地内"
    },
    "とざわ": {
      "name": "とざわ",
      "lat": "38.43.33",
      "lng": "140.09.55",
      "park": "83",
      "address": "山形県最上郡戸沢村蔵岡3704-12号外"
    },
    "にしかわ": {
      "name": "にしかわ",
      "lat": "38.25.59",
      "lng": "140.06.09",
      "park": "93",
      "address": "山形県西村山郡西川町水沢2304"
    },
    "むらやま": {
      "name": "むらやま",
      "lat": "38.29.03",
      "lng": "140.23.09",
      "park": "161",
      "address": "山形県村山市楯岡字一本柳地内"
    }
  },
  "福島県": {
    "会津柳津": {
      "name": "会津柳津",
      "lat": "37.31.29",
      "lng": "139.43.32",
      "park": "65",
      "address": "福島県河沼郡柳津町柳津字下平乙181-1"
    },
    "あいづ　湯川・会津坂下": {
      "name": "あいづ　湯川・会津坂下",
      "lat": "37.33.14",
      "lng": "139.51.56",
      "park": "114",
      "address": "福島県河沼郡湯川村佐野目五丁ノ目78-1"
    },
    "安達": {
      "name": "安達",
      "lat": "37.37.58",
      "lng": "140.29.14",
      "park": "120",
      "address": "福島県二本松市下川崎上平33-1"
    },
    "裏磐梯": {
      "name": "裏磐梯",
      "lat": "37.39.43",
      "lng": "140.02.50",
      "park": "34",
      "address": "福島県耶麻郡北塩原村桧原字南黄連沢山1157"
    },
    "奥会津かねやま": {
      "name": "奥会津かねやま",
      "lat": "37.28.08",
      "lng": "139.32.02",
      "park": "56",
      "address": "福島県大沼郡金山町中川上居平949-8"
    },
    "尾瀬街道みしま宿": {
      "name": "尾瀬街道みしま宿",
      "lat": "37.28.29",
      "lng": "139.40.27",
      "park": "38",
      "address": "福島県大沼郡三島町川井字天屋原610"
    },
    "からむし織の里しょうわ": {
      "name": "からむし織の里しょうわ",
      "lat": "37.19.22",
      "lng": "139.37.59",
      "park": "70",
      "address": "福島県大沼郡昭和村佐倉上ノ原1"
    },
    "川俣": {
      "name": "川俣",
      "lat": "37.39.53",
      "lng": "140.34.48",
      "park": "20",
      "address": "福島県伊達郡川俣町鶴沢字東13-1"
    },
    "喜多の郷": {
      "name": "喜多の郷",
      "lat": "37.41.54",
      "lng": "139.52.53",
      "park": "83",
      "address": "福島県喜多方市松山町鳥見山字三町歩5598-1"
    },
    "季の里天栄": {
      "name": "季の里天栄",
      "lat": "37.14.26",
      "lng": "140.14.53",
      "park": "21",
      "address": "福島県岩瀬郡天栄村大里天房50-1"
    },
    "きらら２８９": {
      "name": "きらら２８９",
      "lat": "37.13.07",
      "lng": "139.32.45",
      "park": "63",
      "address": "福島県南会津郡南会津町山口橋尻1"
    },
    "さくらの郷": {
      "name": "さくらの郷",
      "lat": "37.31.54",
      "lng": "140.35.37",
      "park": "24",
      "address": "福島県二本松市東新殿平石田12-2"
    },
    "しもごう": {
      "name": "しもごう",
      "lat": "37.12.02",
      "lng": "139.55.09",
      "park": "41",
      "address": "福島県南会津郡下郷町南倉沢字木賊844-188"
    },
    "そうま": {
      "name": "そうま",
      "lat": "37.45.29",
      "lng": "140.57.05",
      "park": "70",
      "address": "福島県相馬市日下石字金谷74-1"
    },
    "たじま": {
      "name": "たじま",
      "lat": "37.05.00",
      "lng": "139.43.51",
      "park": "50",
      "address": "福島県南会津郡南会津町糸沢字男鹿沼原3242-8"
    },
    "たまかわ": {
      "name": "たまかわ",
      "lat": "37.13.10",
      "lng": "140.25.19",
      "park": "26",
      "address": "福島県石川郡玉川村岩法寺字宮ノ前140-2"
    },
    "つちゆ": {
      "name": "つちゆ",
      "lat": "37.39.07",
      "lng": "140.20.15",
      "park": "64",
      "address": "福島県福島市松川町水原字南沢41-2"
    },
    "ならは": {
      "name": "ならは",
      "lat": "37.14.48",
      "lng": "141.00.04",
      "park": "113",
      "address": "福島県双葉郡楢葉町山田岡字大堤入22-1"
    },
    "にしあいづ": {
      "name": "にしあいづ",
      "lat": "37.34.58",
      "lng": "139.38.45",
      "park": "60",
      "address": "福島県耶麻郡西会津町野沢字下條1969-26"
    },
    "羽鳥湖高原": {
      "name": "羽鳥湖高原",
      "lat": "37.14.13",
      "lng": "140.04.00",
      "park": "42",
      "address": "福島県岩瀬郡天栄村田良尾芝草1-3552"
    },
    "はなわ": {
      "name": "はなわ",
      "lat": "36.56.50",
      "lng": "140.25.04",
      "park": "100",
      "address": "福島県東白川郡塙町塙字桜木町388-1"
    },
    "ばんだい": {
      "name": "ばんだい",
      "lat": "37.33.36",
      "lng": "139.59.24",
      "park": "78",
      "address": "福島県耶麻郡磐梯町磐梯十王堂38"
    },
    "番屋": {
      "name": "番屋",
      "lat": "37.03.57",
      "lng": "139.37.08",
      "park": "23",
      "address": "福島県南会津郡南会津町番屋4"
    },
    "ひらた": {
      "name": "ひらた",
      "lat": "37.14.51",
      "lng": "140.33.48",
      "park": "60",
      "address": "福島県石川郡平田村上蓬田横森後160"
    },
    "ふくしま東和": {
      "name": "ふくしま東和",
      "lat": "37.34.01",
      "lng": "140.34.51",
      "park": "44",
      "address": "福島県二本松市太田字下田2-3"
    },
    "ふるどの": {
      "name": "ふるどの",
      "lat": "37.05.24",
      "lng": "140.31.59",
      "park": "50",
      "address": "福島県石川郡古殿町田口平舘25"
    },
    "南相馬": {
      "name": "南相馬",
      "lat": "37.37.58",
      "lng": "140.59.13",
      "park": "88",
      "address": "福島県南相馬市原町区高見町2-30-1"
    },
    "よつくら港": {
      "name": "よつくら港",
      "lat": "37.06.16",
      "lng": "140.59.47",
      "park": "79",
      "address": "福島県いわき市四倉町5-218-1"
    }
  },
  "茨城県": {
    "いたこ": {
      "name": "いたこ",
      "lat": "35.56.35",
      "lng": "140.35.34",
      "park": "177",
      "address": "茨城県潮来市前川1326-1"
    },
    "奥久慈だいご": {
      "name": "奥久慈だいご",
      "lat": "36.45.55",
      "lng": "140.21.46",
      "park": "58",
      "address": "茨城県久慈郡大子町池田2830-1"
    },
    "かつら": {
      "name": "かつら",
      "lat": "36.32.30",
      "lng": "140.20.12",
      "park": "126",
      "address": "茨城県東茨城郡城里町赤沢37"
    },
    "ごか": {
      "name": "ごか",
      "lat": "36.05.31",
      "lng": "139.45.43",
      "park": "139",
      "address": "茨城県猿島郡五霞町幸主地内"
    },
    "さかい": {
      "name": "さかい",
      "lat": "36.05.58",
      "lng": "139.47.56",
      "park": "53",
      "address": "茨城県猿島郡境町1341-1"
    },
    "さとみ": {
      "name": "さとみ",
      "lat": "36.42.09",
      "lng": "140.30.48",
      "park": "24",
      "address": "茨城県常陸太田市小菅町694-3"
    },
    "しもつま": {
      "name": "しもつま",
      "lat": "36.12.47",
      "lng": "139.59.26",
      "park": "110",
      "address": "茨城県下妻市数須140"
    },
    "たまつくり": {
      "name": "たまつくり",
      "lat": "36.05.35",
      "lng": "140.24.25",
      "park": "67",
      "address": "茨城県行方市玉造甲1962"
    },
    "ひたちおおた": {
      "name": "ひたちおおた",
      "lat": "36.30.26",
      "lng": "140.31.43",
      "park": "225",
      "address": "茨城県常陸太田市下河合町1016-1"
    },
    "常陸大宮": {
      "name": "常陸大宮",
      "lat": "36.35.38",
      "lng": "140.24.45",
      "park": "151",
      "address": "茨城県常陸大宮市岩崎717-1"
    },
    "日立おさかなセンター": {
      "name": "日立おさかなセンター",
      "lat": "36.29.21",
      "lng": "140.37.07",
      "park": "109",
      "address": "茨城県日立市みなと町5779-24"
    },
    "まくらがの里こが": {
      "name": "まくらがの里こが",
      "lat": "36.11.19",
      "lng": "139.47.34",
      "park": "231",
      "address": "茨城県古河市大和田2623"
    },
    "みわ": {
      "name": "みわ",
      "lat": "36.39.09",
      "lng": "140.17.01",
      "park": "64",
      "address": "茨城県常陸大宮市鷲子272"
    }
  },
  "栃木県": {
    "うつのみや　ろまんちっく村": {
      "name": "うつのみや　ろまんちっく村",
      "lat": "36.37.52",
      "lng": "139.50.08",
      "park": "1100",
      "address": "栃木県宇都宮市新里町丙254"
    },
    "思川": {
      "name": "思川",
      "lat": "36.18.18",
      "lng": "139.45.49",
      "park": "148",
      "address": "栃木県小山市下国府塚25-1"
    },
    "きつれがわ": {
      "name": "きつれがわ",
      "lat": "36.42.44",
      "lng": "140.02.10",
      "park": "127",
      "address": "栃木県さくら市喜連川字辻畑4145"
    },
    "サシバの里いちかい": {
      "name": "サシバの里いちかい",
      "lat": "36.32.22",
      "lng": "140.06.13",
      "park": "179",
      "address": "栃木県芳賀郡市貝町市塙1270"
    },
    "しもつけ": {
      "name": "しもつけ",
      "lat": "36.23.38",
      "lng": "139.53.14",
      "park": "306",
      "address": "栃木県下野市薬師寺41"
    },
    "東山道伊王野": {
      "name": "東山道伊王野",
      "lat": "36.57.04",
      "lng": "140.09.39",
      "park": "69",
      "address": "栃木県那須郡那須町伊王野459"
    },
    "どまんなか　たぬま": {
      "name": "どまんなか　たぬま",
      "lat": "36.20.26",
      "lng": "139.34.32",
      "park": "164",
      "address": "栃木県佐野市吉水町366-2"
    },
    "那須高原友愛の森": {
      "name": "那須高原友愛の森",
      "lat": "37.02.17",
      "lng": "140.01.01",
      "park": "100",
      "address": "栃木県那須郡那須町高久乙593-8"
    },
    "那須野が原博物館": {
      "name": "那須野が原博物館",
      "lat": "36.53.45",
      "lng": "139.58.22",
      "park": "94",
      "address": "栃木県那須塩原市三島5-1"
    },
    "那須与一の郷": {
      "name": "那須与一の郷",
      "lat": "36.51.33",
      "lng": "140.05.29",
      "park": "103",
      "address": "栃木県大田原市南金丸1584-6"
    },
    "にしかた": {
      "name": "にしかた",
      "lat": "36.27.48",
      "lng": "139.44.48",
      "park": "122",
      "address": "栃木県上都賀郡西方町元369-1"
    },
    "日光": {
      "name": "日光",
      "lat": "36.43.17",
      "lng": "139.41.28",
      "park": "62",
      "address": "栃木県日光市今市719-1"
    },
    "にのみや": {
      "name": "にのみや",
      "lat": "36.21.50",
      "lng": "139.58.08",
      "park": "61",
      "address": "栃木県芳賀郡二宮町久下田2204-1"
    },
    "はが": {
      "name": "はが",
      "lat": "36.32.57",
      "lng": "140.03.41",
      "park": "330",
      "address": "栃木県芳賀郡芳賀町祖母井842-1"
    },
    "ばとう": {
      "name": "ばとう",
      "lat": "36.44.40",
      "lng": "140.09.14",
      "park": "57",
      "address": "栃木県那須郡那珂川町北向田183-1"
    },
    "みかも": {
      "name": "みかも",
      "lat": "36.17.36",
      "lng": "139.37.43",
      "park": "125",
      "address": "栃木県下都賀郡藤岡町大田和678"
    },
    "みぶ": {
      "name": "みぶ",
      "lat": "36.27.07",
      "lng": "139.48.37",
      "park": "1559",
      "address": "栃木県下都賀郡壬生町国谷1870-2"
    },
    "明治の森・黒磯": {
      "name": "明治の森・黒磯",
      "lat": "36.59.53",
      "lng": "139.59.19",
      "park": "66",
      "address": "栃木県那須塩原市青木27"
    },
    "もてぎ": {
      "name": "もてぎ",
      "lat": "36.31.28",
      "lng": "140.10.35",
      "park": "250",
      "address": "栃木県芳賀郡茂木町茂木1090-1"
    },
    "やいた": {
      "name": "やいた",
      "lat": "36.48.09",
      "lng": "139.55.31",
      "park": "108",
      "address": "栃木県矢板市矢板114-1"
    },
    "湧水の郷　しおや": {
      "name": "湧水の郷　しおや",
      "lat": "36.45.42",
      "lng": "139.47.04",
      "park": "104",
      "address": "栃木県塩谷郡塩谷町船生上桜3727-3"
    },
    "湯西川": {
      "name": "湯西川",
      "lat": "36.55.37",
      "lng": "139.41.26",
      "park": "42",
      "address": "栃木県日光市西川478-1"
    },
    "湯の香しおばら": {
      "name": "湯の香しおばら",
      "lat": "36.57.09",
      "lng": "139.54.10",
      "park": "90",
      "address": "栃木県那須塩原市関谷字中町442"
    }
  },
  "群馬県": {
    "赤城の恵": {
      "name": "赤城の恵",
      "lat": "36.25.14",
      "lng": "139.07.55",
      "park": "449",
      "address": "群馬県前橋市荻窪町437-11"
    },
    "あがつま峡": {
      "name": "あがつま峡",
      "lat": "36.33.59",
      "lng": "138.44.20",
      "park": "95",
      "address": "群馬県吾妻郡東吾妻町三島6441"
    },
    "あぐりーむ昭和": {
      "name": "あぐりーむ昭和",
      "lat": "36.36.35",
      "lng": "139.04.20",
      "park": "73",
      "address": "群馬県利根郡昭和村森下2406-2"
    },
    "上野": {
      "name": "上野",
      "lat": "36.04.38",
      "lng": "138.47.15",
      "park": "91",
      "address": "群馬県多野郡上野村勝山字南平乙118"
    },
    "オアシスなんもく": {
      "name": "オアシスなんもく",
      "lat": "36.10.30",
      "lng": "138.44.42",
      "park": "50",
      "address": "群馬県甘楽郡南牧村千原3-1"
    },
    "おおた": {
      "name": "おおた",
      "lat": "36.15.40",
      "lng": "139.17.58",
      "park": "170",
      "address": "群馬県太田市粕川町701-1"
    },
    "おのこ": {
      "name": "おのこ",
      "lat": "36.32.42",
      "lng": "138.57.23",
      "park": "30",
      "address": "群馬県渋川市小野子1979-1"
    },
    "川場田園プラザ": {
      "name": "川場田園プラザ",
      "lat": "36.41.02",
      "lng": "139.06.39",
      "park": "300",
      "address": "群馬県利根郡川場村萩室385"
    },
    "甘楽": {
      "name": "甘楽",
      "lat": "36.13.50",
      "lng": "138.55.12",
      "park": "40",
      "address": "群馬県甘楽郡甘楽町小幡444-1"
    },
    "草津運動茶屋公園": {
      "name": "草津運動茶屋公園",
      "lat": "36.36.41",
      "lng": "138.35.36",
      "park": "38",
      "address": "群馬県吾妻郡草津町大字草津2-1"
    },
    "六合": {
      "name": "六合",
      "lat": "36.36.15",
      "lng": "138.38.31",
      "park": "30",
      "address": "群馬県吾妻郡中之条町小雨29"
    },
    "くらぶち小栗の里": {
      "name": "くらぶち小栗の里",
      "lat": "36.25.17",
      "lng": "138.47.47",
      "park": "53",
      "address": "群馬県高崎市倉渕町三ノ倉296-1"
    },
    "ぐりーんふらわー牧場・大胡": {
      "name": "ぐりーんふらわー牧場・大胡",
      "lat": "36.27.24",
      "lng": "139.08.09",
      "park": "173",
      "address": "群馬県前橋市滝窪町1369-1"
    },
    "くろほね・やまびこ": {
      "name": "くろほね・やまびこ",
      "lat": "36.29.17",
      "lng": "139.16.33",
      "park": "34",
      "address": "群馬県桐生市黒保根町下田沢91-4"
    },
    "こもち": {
      "name": "こもち",
      "lat": "36.30.42",
      "lng": "139.01.12",
      "park": "84",
      "address": "群馬県渋川市白井2318-1"
    },
    "しもにた": {
      "name": "しもにた",
      "lat": "36.13.15",
      "lng": "138.48.21",
      "park": "100",
      "address": "群馬県甘楽郡下仁田町馬山3766-11"
    },
    "上州おにし": {
      "name": "上州おにし",
      "lat": "36.08.23",
      "lng": "139.02.38",
      "park": "70",
      "address": "群馬県藤岡市譲原1089-2"
    },
    "白沢": {
      "name": "白沢",
      "lat": "36.39.31",
      "lng": "139.07.25",
      "park": "109",
      "address": "群馬県沼田市白沢町平出1297"
    },
    "たくみの里": {
      "name": "たくみの里",
      "lat": "36.41.34",
      "lng": "138.54.42",
      "park": "92",
      "address": "群馬県利根郡みなかみ町須川847"
    },
    "玉村宿": {
      "name": "玉村宿",
      "lat": "36.18.18",
      "lng": "139.05.51",
      "park": "187",
      "address": "群馬県佐波郡玉村町上新田604-1"
    },
    "月夜野矢瀬親水公園": {
      "name": "月夜野矢瀬親水公園",
      "lat": "36.41.40",
      "lng": "138.59.05",
      "park": "100",
      "address": "群馬県利根郡みなかみ町月夜野2936"
    },
    "富弘美術館": {
      "name": "富弘美術館",
      "lat": "36.33.01",
      "lng": "139.22.36",
      "park": "50",
      "address": "群馬県みどり市東町草木86 "
    },
    "中山盆地": {
      "name": "中山盆地",
      "lat": "36.37.10",
      "lng": "138.57.27",
      "park": "128",
      "address": "群馬県吾妻郡高山村中山2357-1"
    },
    "ふじみ": {
      "name": "ふじみ",
      "lat": "36.27.58",
      "lng": "139.05.52",
      "park": "308",
      "address": "群馬県前橋市富士見町石井1569-1"
    },
    "万葉の里": {
      "name": "万葉の里",
      "lat": "36.06.22",
      "lng": "138.54.05",
      "park": "33",
      "address": "群馬県多野郡神流町黒田742-1"
    },
    "水上町水紀行館": {
      "name": "水上町水紀行館",
      "lat": "36.45.42",
      "lng": "138.58.18",
      "park": "150",
      "address": "群馬県利根郡みなかみ町湯原1681-1"
    },
    "みょうぎ": {
      "name": "みょうぎ",
      "lat": "36.17.47",
      "lng": "138.46.10",
      "park": "112",
      "address": "群馬県富岡市妙義町岳322-7"
    },
    "八ッ場ふるさと館": {
      "name": "八ッ場ふるさと館",
      "lat": "36.32.40",
      "lng": "138.41.15",
      "park": "89",
      "address": "群馬県吾妻郡長野原町林1567-4"
    },
    "よしおか温泉": {
      "name": "よしおか温泉",
      "lat": "36.26.17",
      "lng": "139.02.18",
      "park": "170",
      "address": "群馬県北群馬郡吉岡町漆原2004"
    },
    "ららん藤岡": {
      "name": "ららん藤岡",
      "lat": "36.16.10",
      "lng": "139.04.31",
      "park": "330",
      "address": "群馬県藤岡市中1131-8"
    },
    "霊山たけやま": {
      "name": "霊山たけやま",
      "lat": "36.36.21",
      "lng": "138.50.01",
      "park": "78",
      "address": "群馬県吾妻郡中之条町五反田222-1"
    }
  },
  "埼玉県": {
    "アグリパークゆめすぎと": {
      "name": "アグリパークゆめすぎと",
      "lat": "36.01.17",
      "lng": "139.46.21",
      "park": "242",
      "address": "埼玉県北葛飾郡杉戸町才羽823-2"
    },
    "あらかわ": {
      "name": "あらかわ",
      "lat": "35.57.04",
      "lng": "139.00.58",
      "park": "55",
      "address": "埼玉県秩父市荒川日野538-1"
    },
    "いちごの里よしみ": {
      "name": "いちごの里よしみ",
      "lat": "36.02.01",
      "lng": "139.27.40",
      "park": "174",
      "address": "埼玉県比企郡吉見町久保田1737"
    },
    "大滝温泉": {
      "name": "大滝温泉",
      "lat": "35.56.49",
      "lng": "138.56.29",
      "park": "77",
      "address": "埼玉県秩父市大滝4277-2"
    },
    "おかべ": {
      "name": "おかべ",
      "lat": "36.12.55",
      "lng": "139.14.41",
      "park": "100",
      "address": "埼玉県深谷市岡688-1"
    },
    "おがわまち": {
      "name": "おがわまち",
      "lat": "36.02.57",
      "lng": "139.17.02",
      "park": "94",
      "address": "埼玉県比企郡小川町小川1220"
    },
    "果樹公園あしがくぼ": {
      "name": "果樹公園あしがくぼ",
      "lat": "35.58.25",
      "lng": "139.08.20",
      "park": "54",
      "address": "埼玉県秩父郡横瀬町芦ヶ久保1915-6"
    },
    "川口・あんぎょう": {
      "name": "川口・あんぎょう",
      "lat": "35.50.41",
      "lng": "139.46.10",
      "park": "150",
      "address": "埼玉県川口市安行領家844-2"
    },
    "かわもと": {
      "name": "かわもと",
      "lat": "36.08.54",
      "lng": "139.17.33",
      "park": "46",
      "address": "埼玉県深谷市長在家1279-2"
    },
    "きたかわべ": {
      "name": "きたかわべ",
      "lat": "36.12.28",
      "lng": "139.39.58",
      "park": "58",
      "address": "埼玉県北埼玉郡北川辺町小野袋1737"
    },
    "庄和": {
      "name": "庄和",
      "lat": "35.59.37",
      "lng": "139.47.54",
      "park": "162",
      "address": "埼玉県春日部市上柳995"
    },
    "ちちぶ": {
      "name": "ちちぶ",
      "lat": "35.59.39",
      "lng": "139.05.34",
      "park": "95",
      "address": "埼玉県秩父市大宮4625"
    },
    "童謡のふる里おおとね": {
      "name": "童謡のふる里おおとね",
      "lat": "36.10.01",
      "lng": "139.38.56",
      "park": "136",
      "address": "埼玉県北埼玉郡大利根町佐波258-1"
    },
    "はなぞの": {
      "name": "はなぞの",
      "lat": "36.07.07",
      "lng": "139.13.51",
      "park": "599",
      "address": "埼玉県深谷市小前田458-1"
    },
    "はにゅう": {
      "name": "はにゅう",
      "lat": "36.11.08",
      "lng": "139.30.51",
      "park": "102",
      "address": "埼玉県羽生市上新郷7066"
    },
    "みなの": {
      "name": "みなの",
      "lat": "36.04.25",
      "lng": "139.06.46",
      "park": "55",
      "address": "埼玉県秩父郡皆野町皆野3236-35"
    },
    "めぬま": {
      "name": "めぬま",
      "lat": "36.12.40",
      "lng": "139.22.22",
      "park": "151",
      "address": "埼玉県熊谷市弥藤吾720"
    },
    "龍勢会館": {
      "name": "龍勢会館",
      "lat": "36.02.45",
      "lng": "139.02.36",
      "park": "83",
      "address": "埼玉県秩父市吉田久長32"
    },
    "両神温泉薬師の湯": {
      "name": "両神温泉薬師の湯",
      "lat": "36.00.05",
      "lng": "138.58.28",
      "park": "82",
      "address": "埼玉県秩父郡小鹿野町両神薄2380"
    }
  },
  "千葉県": {
    "あずの里いちはら": {
      "name": "あずの里いちはら",
      "lat": "35.27.38",
      "lng": "140.06.47",
      "park": "68",
      "address": "千葉県市原市浅井小向492-1"
    },
    "おおつの里": {
      "name": "おおつの里",
      "lat": "35.03.15",
      "lng": "139.51.50",
      "park": "25",
      "address": "千葉県南房総市富浦町大津320"
    },
    "オライはすぬま": {
      "name": "オライはすぬま",
      "lat": "35.35.54",
      "lng": "140.30.19",
      "park": "80",
      "address": "千葉県山武市蓮沼ハ4826"
    },
    "鴨川オーシャンパーク": {
      "name": "鴨川オーシャンパーク",
      "lat": "35.03.37",
      "lng": "140.04.50",
      "park": "194",
      "address": "千葉県鴨川市江見太夫崎22"
    },
    "きょなん": {
      "name": "きょなん",
      "lat": "35.07.29",
      "lng": "139.50.25",
      "park": "40",
      "address": "千葉県安房郡鋸南町吉浜516-1"
    },
    "季楽里あさひ": {
      "name": "季楽里あさひ",
      "lat": "35.42.52",
      "lng": "140.40.44",
      "park": "131",
      "address": "千葉県旭市イの5238"
    },
    "くりもと": {
      "name": "くりもと",
      "lat": "35.48.09",
      "lng": "140.28.25",
      "park": "45",
      "address": "千葉県香取市沢1372-1"
    },
    "しょうなん": {
      "name": "しょうなん",
      "lat": "35.51.16",
      "lng": "140.01.37",
      "park": "105",
      "address": "千葉県柏市箕輪新田59-2"
    },
    "白浜野島崎": {
      "name": "白浜野島崎",
      "lat": "34.54.10",
      "lng": "139.52.51",
      "park": "26",
      "address": "千葉県南房総市白浜町滝口9240"
    },
    "たけゆらの里おおたき": {
      "name": "たけゆらの里おおたき",
      "lat": "35.15.05",
      "lng": "140.15.44",
      "park": "68",
      "address": "千葉県夷隅郡大多喜町石神870-5"
    },
    "多古": {
      "name": "多古",
      "lat": "35.43.41",
      "lng": "140.28.44",
      "park": "49",
      "address": "千葉県香取郡多古町多古1069-1"
    },
    "ちくら・潮風王国": {
      "name": "ちくら・潮風王国",
      "lat": "34.55.36",
      "lng": "139.57.21",
      "park": "193",
      "address": "千葉県南房総市千倉町千田1051"
    },
    "つどいの郷むつざわ": {
      "name": "つどいの郷むつざわ",
      "lat": "35.20.56",
      "lng": "140.18.26",
      "park": "63",
      "address": "千葉県長生郡睦沢町上之郷2048-1"
    },
    "とみうら": {
      "name": "とみうら",
      "lat": "35.02.03",
      "lng": "139.50.26",
      "park": "40",
      "address": "千葉県南房総市富浦町青木123-1"
    },
    "ながら": {
      "name": "ながら",
      "lat": "35.27.14",
      "lng": "140.12.37",
      "park": "34",
      "address": "千葉県長生郡長柄町六地蔵138-1"
    },
    "南房パラダイス": {
      "name": "南房パラダイス",
      "lat": "34.56.11",
      "lng": "139.49.30",
      "park": "357",
      "address": "千葉県館山市藤原平砂浦1495"
    },
    "発酵の里こうざき": {
      "name": "発酵の里こうざき",
      "lat": "35.53.48",
      "lng": "140.22.58",
      "park": "75",
      "address": "千葉県香取郡神崎町松崎855"
    },
    "富楽里とみやま": {
      "name": "富楽里とみやま",
      "lat": "35.05.50",
      "lng": "139.51.32",
      "park": "184",
      "address": "千葉県南房総市二部1900"
    },
    "ふれあいパーク・きみつ": {
      "name": "ふれあいパーク・きみつ",
      "lat": "35.11.42",
      "lng": "140.04.23",
      "park": "119",
      "address": "千葉県君津市笹字椿1766-3"
    },
    "風和里しばやま": {
      "name": "風和里しばやま",
      "lat": "35.41.30",
      "lng": "140.24.49",
      "park": "55",
      "address": "千葉県山武郡芝山町小池2568"
    },
    "保田小学校": {
      "name": "保田小学校",
      "lat": "35.08.25",
      "lng": "139.50.48",
      "park": "114",
      "address": "千葉県安房郡鋸南町保田724"
    },
    "水の郷さわら": {
      "name": "水の郷さわら",
      "lat": "35.53.33",
      "lng": "140.30.37",
      "park": "156",
      "address": "千葉県香取市佐原イ3981-2"
    },
    "みのりの郷東金": {
      "name": "みのりの郷東金",
      "lat": "35.34.26",
      "lng": "140.23.11",
      "park": "184",
      "address": "千葉県東金市田間1300-3"
    },
    "三芳村": {
      "name": "三芳村",
      "lat": "35.01.50",
      "lng": "139.53.54",
      "park": "42",
      "address": "千葉県南房総市川田82-1"
    },
    "やちよ": {
      "name": "やちよ",
      "lat": "35.45.18",
      "lng": "140.06.37",
      "park": "100",
      "address": "千葉県八千代市米本4030-1"
    },
    "ローズマリー公園": {
      "name": "ローズマリー公園",
      "lat": "35.00.19",
      "lng": "139.58.44",
      "park": "193",
      "address": "千葉県南房総市白子1501"
    },
    "和田浦　ＷＡ・Ｏ！": {
      "name": "和田浦　ＷＡ・Ｏ！",
      "lat": "35.02.21",
      "lng": "140.01.27",
      "park": "81",
      "address": "千葉県南房総市和田町仁我浦243"
    }
  },
  "東京都": {
    "八王子滝山": {
      "name": "八王子滝山",
      "lat": "35.41.00",
      "lng": "139.20.42",
      "park": "62",
      "address": "東京都八王子市滝山町1丁目592-2"
    }
  },
  "神奈川県": {
    "清川": {
      "name": "清川",
      "lat": "35.28.45",
      "lng": "139.16.49",
      "park": "80",
      "address": "神奈川県愛甲郡清川村煤ケ谷2129"
    },
    "箱根峠": {
      "name": "箱根峠",
      "lat": "35.11.00",
      "lng": "139.01.08",
      "park": "33",
      "address": "神奈川県足柄下郡箱根町箱根字畑引山381-22"
    },
    "山北": {
      "name": "山北",
      "lat": "35.22.35",
      "lng": "139.02.06",
      "park": "23",
      "address": "神奈川県足柄上郡山北町湯触317"
    }
  },
  "山梨県": {
    "甲斐大和": {
      "name": "甲斐大和",
      "lat": "35.37.58",
      "lng": "138.47.46",
      "park": "70",
      "address": "山梨県甲州市大和町初鹿野2248"
    },
    "かつやま": {
      "name": "かつやま",
      "lat": "35.30.05",
      "lng": "138.44.16",
      "park": "52",
      "address": "山梨県南都留郡富士河口湖町勝山3758-1"
    },
    "こすげ": {
      "name": "こすげ",
      "lat": "35.45.01",
      "lng": "138.57.12",
      "park": "101",
      "address": "山梨県北都留郡小菅村3445"
    },
    "こぶちさわ": {
      "name": "こぶちさわ",
      "lat": "35.52.34",
      "lng": "138.19.09",
      "park": "57",
      "address": "山梨県北杜市小淵沢町2968-1"
    },
    "しもべ": {
      "name": "しもべ",
      "lat": "35.28.00",
      "lng": "138.30.59",
      "park": "53",
      "address": "山梨県南巨摩郡身延町古関4321"
    },
    "しらね": {
      "name": "しらね",
      "lat": "35.38.05",
      "lng": "138.28.28",
      "park": "76",
      "address": "山梨県南アルプス市在家塚595-1"
    },
    "たばやま": {
      "name": "たばやま",
      "lat": "35.47.11",
      "lng": "138.55.39",
      "park": "108",
      "address": "山梨県北都留郡丹波山村2901"
    },
    "どうし": {
      "name": "どうし",
      "lat": "35.30.00",
      "lng": "138.59.36",
      "park": "62",
      "address": "山梨県南都留郡道志村9745"
    },
    "とみざわ": {
      "name": "とみざわ",
      "lat": "35.14.19",
      "lng": "138.29.18",
      "park": "35",
      "address": "山梨県南巨摩郡南部町福士28507-1"
    },
    "とよとみ": {
      "name": "とよとみ",
      "lat": "35.34.54",
      "lng": "138.32.55",
      "park": "64",
      "address": "山梨県中央市浅利1010-1"
    },
    "なるさわ": {
      "name": "なるさわ",
      "lat": "35.28.28",
      "lng": "138.41.43",
      "park": "253",
      "address": "山梨県南都留郡鳴沢村字ジラゴンノ8532-63"
    },
    "にらさき": {
      "name": "にらさき",
      "lat": "35.44.42",
      "lng": "138.26.31",
      "park": "46",
      "address": "山梨県韮崎市中田町中条1795"
    },
    "はくしゅう": {
      "name": "はくしゅう",
      "lat": "35.48.25",
      "lng": "138.20.03",
      "park": "77",
      "address": "山梨県北杜市白州町白須1308"
    },
    "花かげの郷まきおか": {
      "name": "花かげの郷まきおか",
      "lat": "35.45.04",
      "lng": "138.43.17",
      "park": "67",
      "address": "山梨県山梨市牧丘町室伏2120"
    },
    "富士川": {
      "name": "富士川",
      "lat": "35.33.15",
      "lng": "138.28.29",
      "park": "79",
      "address": "山梨県南巨摩郡富士川町青柳町1655-3"
    },
    "富士吉田": {
      "name": "富士吉田",
      "lat": "35.27.21",
      "lng": "138.48.19",
      "park": "336",
      "address": "山梨県富士吉田市新屋1936-6"
    },
    "みとみ": {
      "name": "みとみ",
      "lat": "35.51.22",
      "lng": "138.45.34",
      "park": "99",
      "address": "山梨県山梨市三富川浦1822-20"
    },
    "南きよさと": {
      "name": "南きよさと",
      "lat": "35.51.45",
      "lng": "138.25.53",
      "park": "320",
      "address": "山梨県北杜市高根町長沢760"
    },
    "みのぶ　富士川観光センター": {
      "name": "みのぶ　富士川観光センター",
      "lat": "35.24.59",
      "lng": "138.26.26",
      "park": "22",
      "address": "山梨県南巨摩郡身延町下山1597"
    }
  },
  "新潟県": {
    "阿賀の里": {
      "name": "阿賀の里",
      "lat": "37.44.05",
      "lng": "139.18.37",
      "park": "372",
      "address": "新潟県東蒲原郡阿賀町石間4301"
    },
    "朝日": {
      "name": "朝日",
      "lat": "38.16.46",
      "lng": "139.31.32",
      "park": "70",
      "address": "新潟県村上市猿沢1212"
    },
    "あらい": {
      "name": "あらい",
      "lat": "37.01.23",
      "lng": "138.13.45",
      "park": "270",
      "address": "新潟県妙高市猪野山58-1"
    },
    "いりひろせ": {
      "name": "いりひろせ",
      "lat": "37.21.10",
      "lng": "139.03.38",
      "park": "174",
      "address": "新潟県魚沼市大栃山357-1"
    },
    "うみてらす名立": {
      "name": "うみてらす名立",
      "lat": "37.09.36",
      "lng": "138.05.21",
      "park": "450",
      "address": "新潟県上越市名立区名立大町4280-1"
    },
    "越後出雲崎　天領の里": {
      "name": "越後出雲崎　天領の里",
      "lat": "37.32.09",
      "lng": "138.40.54",
      "park": "141",
      "address": "新潟県三島郡出雲崎町尼瀬6-57"
    },
    "越後市振の関": {
      "name": "越後市振の関",
      "lat": "36.58.37",
      "lng": "137.38.48",
      "park": "70",
      "address": "新潟県糸魚川市市振1035-50"
    },
    "越後川口": {
      "name": "越後川口",
      "lat": "37.15.28",
      "lng": "138.52.15",
      "park": "42",
      "address": "新潟県北魚沼郡川口町中山84-2"
    },
    "親不知ピアパーク": {
      "name": "親不知ピアパーク",
      "lat": "37.00.00",
      "lng": "137.43.58",
      "park": "362",
      "address": "新潟県糸魚川市外波903-1"
    },
    "加治川": {
      "name": "加治川",
      "lat": "37.59.58",
      "lng": "139.22.32",
      "park": "125",
      "address": "新潟県新発田市横岡1147"
    },
    "風の丘米山": {
      "name": "風の丘米山",
      "lat": "37.20.37",
      "lng": "138.29.35",
      "park": "147",
      "address": "新潟県柏崎市青海川175-1"
    },
    "神林": {
      "name": "神林",
      "lat": "38.10.11",
      "lng": "139.27.50",
      "park": "37",
      "address": "新潟県岩船郡神林村牧目584"
    },
    "花夢里にいつ": {
      "name": "花夢里にいつ",
      "lat": "37.47.26",
      "lng": "139.04.54",
      "park": "177",
      "address": "新潟県新潟市川根438"
    },
    "漢学の里しただ": {
      "name": "漢学の里しただ",
      "lat": "37.32.20",
      "lng": "139.06.19",
      "park": "137",
      "address": "新潟県三条市庭月451-1"
    },
    "国上": {
      "name": "国上",
      "lat": "37.39.35",
      "lng": "138.49.42",
      "park": "128",
      "address": "新潟県燕市国上5866-1"
    },
    "クロス１０十日町": {
      "name": "クロス１０十日町",
      "lat": "37.08.08",
      "lng": "138.45.53",
      "park": "141",
      "address": "新潟県十日町市本町6"
    },
    "芸能とトキの里": {
      "name": "芸能とトキの里",
      "lat": "38.02.34",
      "lng": "138.26.50",
      "park": "120",
      "address": "新潟県佐渡市吾潟1839-1"
    },
    "笹川流れ": {
      "name": "笹川流れ",
      "lat": "38.22.20",
      "lng": "139.27.42",
      "park": "50",
      "address": "新潟県村上市桑川892-5"
    },
    "じょんのびの里高柳": {
      "name": "じょんのびの里高柳",
      "lat": "37.12.35",
      "lng": "138.38.10",
      "park": "250",
      "address": "新潟県柏崎市高柳町高尾10-1"
    },
    "瀬替えの郷せんだ": {
      "name": "瀬替えの郷せんだ",
      "lat": "37.11.45",
      "lng": "138.41.23",
      "park": "40",
      "address": "新潟県十日町市中仙田甲826"
    },
    "関川": {
      "name": "関川",
      "lat": "38.05.18",
      "lng": "139.34.13",
      "park": "306",
      "address": "新潟県岩船郡関川村上関1252-1"
    },
    "胎内": {
      "name": "胎内",
      "lat": "38.03.38",
      "lng": "139.27.23",
      "park": "150",
      "address": "新潟県胎内市下赤谷387-1"
    },
    "ちぢみの里おぢや": {
      "name": "ちぢみの里おぢや",
      "lat": "37.18.07",
      "lng": "138.49.34",
      "park": "90",
      "address": "新潟県小千谷市ひ生甲1670-1"
    },
    "燕三条地場産センター": {
      "name": "燕三条地場産センター",
      "lat": "37.38.47",
      "lng": "138.56.12",
      "park": "127",
      "address": "新潟県三条市須頃1-17"
    },
    "豊栄": {
      "name": "豊栄",
      "lat": "37.57.18",
      "lng": "139.13.34",
      "park": "128",
      "address": "新潟県新潟市木崎切尾山3644-乙"
    },
    "新潟ふるさと村": {
      "name": "新潟ふるさと村",
      "lat": "37.51.48",
      "lng": "139.01.24",
      "park": "380",
      "address": "新潟県新潟市山田2307"
    },
    "西山ふるさと公苑": {
      "name": "西山ふるさと公苑",
      "lat": "37.26.51",
      "lng": "138.39.53",
      "park": "215",
      "address": "新潟県柏崎市西山町坂田717-4"
    },
    "能生": {
      "name": "能生",
      "lat": "37.06.39",
      "lng": "138.00.26",
      "park": "122",
      "address": "新潟県糸魚川市能生小泊3596-2"
    },
    "パティオにいがた": {
      "name": "パティオにいがた",
      "lat": "37.32.36",
      "lng": "138.53.12",
      "park": "111",
      "address": "新潟県見附市今町1-3358"
    },
    "まつだいふるさと会館": {
      "name": "まつだいふるさと会館",
      "lat": "37.07.46",
      "lng": "138.37.01",
      "park": "57",
      "address": "新潟県十日町市松代3816"
    },
    "みかわ": {
      "name": "みかわ",
      "lat": "37.42.52",
      "lng": "139.21.48",
      "park": "51",
      "address": "新潟県東蒲原郡阿賀町岩谷2865"
    },
    "みつまた": {
      "name": "みつまた",
      "lat": "36.53.48",
      "lng": "138.46.49",
      "park": "17",
      "address": "新潟県南魚沼郡湯沢町三俣1000"
    },
    "南魚沼": {
      "name": "南魚沼",
      "lat": "37.00.01",
      "lng": "138.49.19",
      "park": "162",
      "address": "新潟県南魚沼市下一日市855"
    },
    "雪のふるさと　やすづか": {
      "name": "雪のふるさと　やすづか",
      "lat": "37.05.33",
      "lng": "138.28.25",
      "park": "46",
      "address": "新潟県上越市安塚区樽田140"
    },
    "ゆのたに": {
      "name": "ゆのたに",
      "lat": "37.13.15",
      "lng": "138.59.09",
      "park": "175",
      "address": "新潟県魚沼市吉田1148"
    },
    "よしかわ杜氏の郷": {
      "name": "よしかわ杜氏の郷",
      "lat": "37.14.21",
      "lng": "138.22.48",
      "park": "268",
      "address": "新潟県上越市吉川区杜氏の郷1"
    },
    "良寛の里わしま": {
      "name": "良寛の里わしま",
      "lat": "37.34.40",
      "lng": "138.46.01",
      "park": "48",
      "address": "新潟県長岡市島崎5713-2"
    },
    "Ｒ２９０とちお": {
      "name": "Ｒ２９０とちお",
      "lat": "37.27.24",
      "lng": "139.00.38",
      "park": "109",
      "address": "新潟県長岡市宮沢1764"
    }
  },
  "富山県": {
    "井波": {
      "name": "井波",
      "lat": "36.33.30",
      "lng": "136.58.51",
      "park": "123",
      "address": "富山県南砺市北川730"
    },
    "ウェーブパークなめりかわ": {
      "name": "ウェーブパークなめりかわ",
      "lat": "36.46.16",
      "lng": "137.20.51",
      "park": "101",
      "address": "富山県滑川市中川原410"
    },
    "うなづき": {
      "name": "うなづき",
      "lat": "36.51.28",
      "lng": "137.32.41",
      "park": "78",
      "address": "富山県黒部市宇奈月町下立686"
    },
    "上平": {
      "name": "上平",
      "lat": "36.22.27",
      "lng": "136.52.27",
      "park": "72",
      "address": "富山県南砺市西赤尾町72-1"
    },
    "カモンパーク新湊": {
      "name": "カモンパーク新湊",
      "lat": "36.44.56",
      "lng": "137.05.17",
      "park": "93",
      "address": "富山県射水市鏡宮296"
    },
    "庄川": {
      "name": "庄川",
      "lat": "36.34.17",
      "lng": "136.58.59",
      "park": "58",
      "address": "富山県砺波市庄川町示野437"
    },
    "たいら": {
      "name": "たいら",
      "lat": "36.26.33",
      "lng": "136.58.35",
      "park": "24",
      "address": "富山県南砺市東中江215"
    },
    "利賀": {
      "name": "利賀",
      "lat": "36.31.16",
      "lng": "137.01.47",
      "park": "26",
      "address": "富山県南砺市利賀村高沼下北山43-7"
    },
    "砺波": {
      "name": "砺波",
      "lat": "36.38.18",
      "lng": "136.57.47",
      "park": "46",
      "address": "富山県砺波市宮沢町3-9"
    },
    "氷見": {
      "name": "氷見",
      "lat": "36.51.28",
      "lng": "136.59.32",
      "park": "180",
      "address": "富山県氷見市中央町（氷見漁港内）"
    },
    "福光": {
      "name": "福光",
      "lat": "36.33.47",
      "lng": "136.51.54",
      "park": "20",
      "address": "富山県南砺市中ノ江16"
    },
    "細入": {
      "name": "細入",
      "lat": "36.29.08",
      "lng": "137.14.28",
      "park": "78",
      "address": "富山県富山市片掛3-5"
    },
    "万葉の里　高岡": {
      "name": "万葉の里　高岡",
      "lat": "36.44.01",
      "lng": "136.58.20",
      "park": "118",
      "address": "富山県高岡市蜂ヶ島131-1"
    },
    "メルヘンおやべ": {
      "name": "メルヘンおやべ",
      "lat": "36.41.11",
      "lng": "136.52.47",
      "park": "122",
      "address": "富山県小矢部市桜町1535-1"
    }
  },
  "石川県": {
    "赤神": {
      "name": "赤神",
      "lat": "37.14.43",
      "lng": "136.42.45",
      "park": "39",
      "address": "石川県輪島市門前町赤神壱110"
    },
    "あなみず": {
      "name": "あなみず",
      "lat": "37.13.31",
      "lng": "136.54.28",
      "park": "70",
      "address": "石川県鳳珠郡穴水町大町チ41-6"
    },
    "いおり": {
      "name": "いおり",
      "lat": "37.01.33",
      "lng": "137.02.58",
      "park": "69",
      "address": "石川県七尾市庵町笹ヶ谷内3-1"
    },
    "一向一揆の里": {
      "name": "一向一揆の里",
      "lat": "36.21.26",
      "lng": "136.36.07",
      "park": "40",
      "address": "石川県白山市出合町甲34"
    },
    "内灘サンセットパーク": {
      "name": "内灘サンセットパーク",
      "lat": "36.39.22",
      "lng": "136.39.07",
      "park": "48",
      "address": "石川県河北郡内灘町大学1-4-1"
    },
    "織姫の里なかのと": {
      "name": "織姫の里なかのと",
      "lat": "36.58.01",
      "lng": "136.54.28",
      "park": "99",
      "address": "石川県鹿島郡中能登町井田ぬ部10-1"
    },
    "倶利伽羅源平の郷": {
      "name": "倶利伽羅源平の郷",
      "lat": "36.39.37",
      "lng": "136.46.14",
      "park": "71",
      "address": "石川県河北郡津幡町字竹橋"
    },
    "こまつ木場潟": {
      "name": "こまつ木場潟",
      "lat": "36.22.00",
      "lng": "136.27.56",
      "park": "78",
      "address": "石川県小松市蓮代寺町ケ2-2"
    },
    "ころ柿の里しか": {
      "name": "ころ柿の里しか",
      "lat": "37.00.17",
      "lng": "136.46.57",
      "park": "172",
      "address": "石川県羽咋郡志賀町字末吉新保向10"
    },
    "桜峠": {
      "name": "桜峠",
      "lat": "37.19.43",
      "lng": "137.00.51",
      "park": "33",
      "address": "石川県鳳珠郡能登町字当目2-24-24"
    },
    "しらやまさん": {
      "name": "しらやまさん",
      "lat": "36.26.01",
      "lng": "136.38.01",
      "park": "40",
      "address": "石川県能美市和佐谷町200"
    },
    "すず塩田村": {
      "name": "すず塩田村",
      "lat": "37.29.00",
      "lng": "137.07.01",
      "park": "39",
      "address": "石川県珠洲市仁江町1字12-1"
    },
    "すずなり": {
      "name": "すずなり",
      "lat": "37.26.19",
      "lng": "137.16.23",
      "park": "43",
      "address": "石川県珠洲市野々江町シ部15"
    },
    "瀬女": {
      "name": "瀬女",
      "lat": "36.17.06",
      "lng": "136.39.08",
      "park": "26",
      "address": "石川県白山市瀬戸寅163-1"
    },
    "千枚田ポケットパーク": {
      "name": "千枚田ポケットパーク",
      "lat": "37.25.16",
      "lng": "137.00.02",
      "park": "13",
      "address": "石川県輪島市白米町ハ部99-4"
    },
    "高松": {
      "name": "高松",
      "lat": "36.47.00",
      "lng": "136.43.40",
      "park": "125",
      "address": "石川県かほく市二ツ屋16-3"
    },
    "とぎ海街道": {
      "name": "とぎ海街道",
      "lat": "37.08.14",
      "lng": "136.43.40",
      "park": "24",
      "address": "石川県羽咋郡志賀町富来領家町タ2-11"
    },
    "なかじまロマン峠": {
      "name": "なかじまロマン峠",
      "lat": "37.07.39",
      "lng": "136.51.58",
      "park": "27",
      "address": "石川県七尾市中島町中島二部1-19"
    },
    "能登空港": {
      "name": "能登空港",
      "lat": "37.17.34",
      "lng": "136.57.34",
      "park": "514",
      "address": "石川県輪島市三井町洲衛10部11-1"
    },
    "のとじま": {
      "name": "のとじま",
      "lat": "37.08.04",
      "lng": "137.00.05",
      "park": "282",
      "address": "石川県七尾市能登島向田町122部14"
    },
    "能登食祭市場": {
      "name": "能登食祭市場",
      "lat": "37.02.46",
      "lng": "136.58.19",
      "park": "215",
      "address": "石川県七尾市府中町員外13-1"
    },
    "狼煙": {
      "name": "狼煙",
      "lat": "37.31.23",
      "lng": "137.19.39",
      "park": "112",
      "address": "石川県珠洲市狼煙町テ部1-1"
    },
    "山中温泉　ゆけむり健康村": {
      "name": "山中温泉　ゆけむり健康村",
      "lat": "36.14.06",
      "lng": "136.22.15",
      "park": "119",
      "address": "石川県加賀市山中温泉こおろぎ町イ19"
    },
    "輪島": {
      "name": "輪島",
      "lat": "37.23.09",
      "lng": "136.54.33",
      "park": "22",
      "address": "石川県輪島市河井町20部1-131"
    }
  },
  "長野県": {
    "あおき": {
      "name": "あおき",
      "lat": "36.22.11",
      "lng": "138.08.38",
      "park": "39",
      "address": "長野県小県郡青木村村松大沖29-1"
    },
    "安曇野　松川": {
      "name": "安曇野　松川",
      "lat": "36.23.35",
      "lng": "137.52.14",
      "park": "50",
      "address": "長野県北安曇郡松川村5375-1"
    },
    "アルプス安曇野ほりがねの里": {
      "name": "アルプス安曇野ほりがねの里",
      "lat": "36.17.25",
      "lng": "137.52.51",
      "park": "172",
      "address": "長野県安曇野市堀金烏川2696"
    },
    "池田": {
      "name": "池田",
      "lat": "36.23.38",
      "lng": "137.53.16",
      "park": "66",
      "address": "長野県北安曇郡池田町会染6330"
    },
    "今井　恵みの里": {
      "name": "今井　恵みの里",
      "lat": "36.08.42",
      "lng": "137.54.21",
      "park": "60",
      "address": "長野県松本市今井886-2"
    },
    "上田　道と川の駅": {
      "name": "上田　道と川の駅",
      "lat": "36.24.14",
      "lng": "138.12.32",
      "park": "93",
      "address": "長野県上田市小泉塩田川原2575-2"
    },
    "美ヶ原高原美術館": {
      "name": "美ヶ原高原美術館",
      "lat": "36.13.39",
      "lng": "138.08.36",
      "park": "819",
      "address": "長野県上田市武石上本入2085-70"
    },
    "オアシスおぶせ": {
      "name": "オアシスおぶせ",
      "lat": "36.41.11",
      "lng": "138.17.53",
      "park": "136",
      "address": "長野県上高井郡小布施町大島601"
    },
    "大桑（木楽舎）": {
      "name": "大桑（木楽舎）",
      "lat": "35.40.44",
      "lng": "137.39.23",
      "park": "83",
      "address": "長野県木曽郡大桑村野尻160-27"
    },
    "おがわ": {
      "name": "おがわ",
      "lat": "36.36.37",
      "lng": "137.59.37",
      "park": "49",
      "address": "長野県上水内郡小川村高府1502-2"
    },
    "小坂田公園": {
      "name": "小坂田公園",
      "lat": "36.06.11",
      "lng": "137.59.28",
      "park": "292",
      "address": "長野県塩尻市塩尻町1090"
    },
    "小谷": {
      "name": "小谷",
      "lat": "36.50.32",
      "lng": "137.54.13",
      "park": "54",
      "address": "長野県北安曇郡小谷村北小谷1861-1"
    },
    "木曽川源流の里　きそむら": {
      "name": "木曽川源流の里　きそむら",
      "lat": "35.55.39",
      "lng": "137.47.20",
      "park": "44",
      "address": "長野県木曽郡木祖村薮原163-1"
    },
    "木曽ならかわ": {
      "name": "木曽ならかわ",
      "lat": "35.58.59",
      "lng": "137.50.44",
      "park": "112",
      "address": "長野県塩尻市木曽平沢2272-7"
    },
    "木曽福島": {
      "name": "木曽福島",
      "lat": "35.48.52",
      "lng": "137.41.07",
      "park": "83",
      "address": "長野県木曽郡木曽町福島4061-1"
    },
    "北信州やまのうち": {
      "name": "北信州やまのうち",
      "lat": "36.44.18",
      "lng": "138.24.28",
      "park": "53",
      "address": "長野県下高井郡山ノ内町佐野393-2"
    },
    "さかきた": {
      "name": "さかきた",
      "lat": "36.25.22",
      "lng": "138.00.54",
      "park": "26",
      "address": "長野県東筑摩郡筑北村坂北長田4340"
    },
    "しなの": {
      "name": "しなの",
      "lat": "36.48.55",
      "lng": "138.11.36",
      "park": "73",
      "address": "長野県上水内郡信濃町柏原1260-4"
    },
    "信濃路下條": {
      "name": "信濃路下條",
      "lat": "35.24.50",
      "lng": "137.47.52",
      "park": "37",
      "address": "長野県下伊那郡下條村睦沢2514"
    },
    "信越さかえ": {
      "name": "信越さかえ",
      "lat": "36.59.08",
      "lng": "138.35.06",
      "park": "29",
      "address": "長野県下水内郡栄村北信3746-1"
    },
    "信州新町": {
      "name": "信州新町",
      "lat": "36.34.57",
      "lng": "138.03.21",
      "park": "55",
      "address": "長野県上水内郡信州新町水内4619"
    },
    "信州新野千石平": {
      "name": "信州新野千石平",
      "lat": "35.15.15",
      "lng": "137.44.54",
      "park": "54",
      "address": "長野県下伊那郡阿南町新野2700"
    },
    "信州蔦木宿": {
      "name": "信州蔦木宿",
      "lat": "35.51.36",
      "lng": "138.16.48",
      "park": "37",
      "address": "長野県諏訪郡富士見町落合字蔦木河原1984-1"
    },
    "信州平谷": {
      "name": "信州平谷",
      "lat": "35.19.16",
      "lng": "137.38.05",
      "park": "65",
      "address": "長野県下伊那郡平谷村321"
    },
    "遠山郷": {
      "name": "遠山郷",
      "lat": "35.19.05",
      "lng": "137.56.02",
      "park": "117",
      "address": "長野県飯田市南信濃和田456"
    },
    "中条": {
      "name": "中条",
      "lat": "36.36.03",
      "lng": "138.01.09",
      "park": "41",
      "address": "長野県上水内郡中条村住良木字向川原1704"
    },
    "長野市大岡特産センター": {
      "name": "長野市大岡特産センター",
      "lat": "36.31.24",
      "lng": "137.57.41",
      "park": "80",
      "address": "長野県長野市大岡甲5275-1"
    },
    "奈良井木曽の大橋": {
      "name": "奈良井木曽の大橋",
      "lat": "35.57.46",
      "lng": "137.49.03",
      "park": "114",
      "address": "長野県塩尻市奈良井1346-3"
    },
    "白馬": {
      "name": "白馬",
      "lat": "36.39.02",
      "lng": "137.51.01",
      "park": "26",
      "address": "長野県北安曇郡白馬村神城21462-1"
    },
    "花の駅　千曲川": {
      "name": "花の駅　千曲川",
      "lat": "36.52.43",
      "lng": "138.23.27",
      "park": "67",
      "address": "長野県飯山市常盤7425"
    },
    "花の里いいじま": {
      "name": "花の里いいじま",
      "lat": "35.39.31",
      "lng": "137.54.47",
      "park": "84",
      "address": "長野県上伊那郡飯島町七久保2252"
    },
    "日義木曽駒高原": {
      "name": "日義木曽駒高原",
      "lat": "35.51.48",
      "lng": "137.44.35",
      "park": "25",
      "address": "長野県木曽郡木曽町日義4730-3"
    },
    "ＦＡＲＭＵＳ　木島平": {
      "name": "ＦＡＲＭＵＳ　木島平",
      "lat": "36.50.57",
      "lng": "138.23.30",
      "park": "57",
      "address": "長野県下高井郡木島平村上木島38-1"
    },
    "風穴の里": {
      "name": "風穴の里",
      "lat": "36.09.01",
      "lng": "137.45.18",
      "park": "42",
      "address": "長野県松本市安曇3528-1"
    },
    "ふるさと豊田": {
      "name": "ふるさと豊田",
      "lat": "36.47.51",
      "lng": "138.19.32",
      "park": "39",
      "address": "長野県中野市永江2136"
    },
    "ぽかぽかランド美麻": {
      "name": "ぽかぽかランド美麻",
      "lat": "36.36.08",
      "lng": "137.53.55",
      "park": "102",
      "address": "長野県大町市美麻16784"
    },
    "ほっとぱ〜く・浅科": {
      "name": "ほっとぱ〜く・浅科",
      "lat": "36.15.16",
      "lng": "138.24.26",
      "park": "42",
      "address": "長野県佐久市甲2177-1"
    },
    "マルメロの駅ながと": {
      "name": "マルメロの駅ながと",
      "lat": "36.16.12",
      "lng": "138.15.39",
      "park": "46",
      "address": "長野県小県郡長和町古町2424-19"
    },
    "三岳": {
      "name": "三岳",
      "lat": "35.49.10",
      "lng": "137.39.04",
      "park": "43",
      "address": "長野県木曽郡木曽町三岳10491-9"
    },
    "南アルプスむら長谷": {
      "name": "南アルプスむら長谷",
      "lat": "35.48.24",
      "lng": "138.05.12",
      "park": "23",
      "address": "長野県伊那市長谷非持1400"
    },
    "みまき": {
      "name": "みまき",
      "lat": "36.19.55",
      "lng": "138.21.47",
      "park": "26",
      "address": "長野県東御市布下35-4"
    },
    "雷電くるみの里": {
      "name": "雷電くるみの里",
      "lat": "36.21.09",
      "lng": "138.22.37",
      "park": "122",
      "address": "長野県東御市滋野乙4524-1"
    }
  },
  "岐阜県": {
    "アルプ飛騨古川": {
      "name": "アルプ飛騨古川",
      "lat": "36.13.02",
      "lng": "137.11.43",
      "park": "86",
      "address": "岐阜県飛騨市古川町上町1348-2"
    },
    "池田温泉": {
      "name": "池田温泉",
      "lat": "35.24.59",
      "lng": "136.33.45",
      "park": "179",
      "address": "岐阜県揖斐郡池田町片山1953-1"
    },
    "うすずみ桜の里・ねお": {
      "name": "うすずみ桜の里・ねお",
      "lat": "35.39.25",
      "lng": "136.35.32",
      "park": "38",
      "address": "岐阜県本巣市根尾門脇433-3"
    },
    "奥飛騨温泉郷上宝": {
      "name": "奥飛騨温泉郷上宝",
      "lat": "36.14.45",
      "lng": "137.30.10",
      "park": "35",
      "address": "岐阜県高山市奥飛騨温泉郷田頃家11-1"
    },
    "おばあちゃん市・山岡": {
      "name": "おばあちゃん市・山岡",
      "lat": "35.19.30",
      "lng": "137.18.34",
      "park": "22",
      "address": "岐阜県恵那市山岡町田代1565-169"
    },
    "織部の里もとす": {
      "name": "織部の里もとす",
      "lat": "35.29.49",
      "lng": "136.40.12",
      "park": "98",
      "address": "岐阜県本巣市山口676"
    },
    "加子母": {
      "name": "加子母",
      "lat": "35.42.20",
      "lng": "137.22.40",
      "park": "36",
      "address": "岐阜県中津川市加子母3900-29"
    },
    "可児ッテ「ＣＡＮＩＴＴＥ」": {
      "name": "可児ッテ「ＣＡＮＩＴＴＥ」",
      "lat": "35.25.37",
      "lng": "137.06.15",
      "park": "68",
      "address": "岐阜県可児市柿田416-1"
    },
    "上矢作ラ・フォーレ福寿の里": {
      "name": "上矢作ラ・フォーレ福寿の里",
      "lat": "35.19.13",
      "lng": "137.28.29",
      "park": "30",
      "address": "岐阜県恵那市上矢作町3566-1"
    },
    "きりら坂下": {
      "name": "きりら坂下",
      "lat": "35.34.02",
      "lng": "137.32.15",
      "park": "88",
      "address": "岐阜県中津川市坂下450-2"
    },
    "クレール平田": {
      "name": "クレール平田",
      "lat": "35.16.17",
      "lng": "136.40.26",
      "park": "41",
      "address": "岐阜県海津市平田町野寺2357-2"
    },
    "古今伝授の里　やまと": {
      "name": "古今伝授の里　やまと",
      "lat": "35.48.47",
      "lng": "136.54.17",
      "park": "208",
      "address": "岐阜県郡上市大和町剣164"
    },
    "五木のやかた・かわうえ": {
      "name": "五木のやかた・かわうえ",
      "lat": "35.35.57",
      "lng": "137.30.18",
      "park": "24",
      "address": "岐阜県中津川市川上上平1849-3"
    },
    "桜の郷　荘川": {
      "name": "桜の郷　荘川",
      "lat": "36.01.06",
      "lng": "136.58.07",
      "park": "149",
      "address": "岐阜県高山市荘川町猿丸82-1"
    },
    "賤母": {
      "name": "賤母",
      "lat": "35.34.58",
      "lng": "137.33.12",
      "park": "55",
      "address": "岐阜県中津川市山口1-14"
    },
    "志野・織部": {
      "name": "志野・織部",
      "lat": "35.23.28",
      "lng": "137.11.27",
      "park": "51",
      "address": "岐阜県土岐市泉北山町2-13-1"
    },
    "白尾ふれあいパーク": {
      "name": "白尾ふれあいパーク",
      "lat": "35.53.11",
      "lng": "136.53.42",
      "park": "53",
      "address": "岐阜県郡上市白鳥町恩地7-2"
    },
    "白川郷": {
      "name": "白川郷",
      "lat": "36.16.33",
      "lng": "136.54.16",
      "park": "66",
      "address": "岐阜県大野郡白川村飯島411"
    },
    "白鳥": {
      "name": "白鳥",
      "lat": "35.55.13",
      "lng": "136.50.06",
      "park": "105",
      "address": "岐阜県郡上市白鳥町長滝402"
    },
    "宙ドーム・神岡": {
      "name": "宙ドーム・神岡",
      "lat": "36.19.33",
      "lng": "137.18.37",
      "park": "58",
      "address": "岐阜県飛騨市神岡町夕陽ヶ丘6"
    },
    "清流白川　クオーレの里 (1)": {
      "name": "清流白川　クオーレの里 (1)",
      "lat": "35.35.32",
      "lng": "137.13.19",
      "park": "206",
      "address": "岐阜県加茂郡白川町和泉181-1"
    },
    "清流白川　クオーレの里 (2)": {
      "name": "清流白川　クオーレの里 (2)",
      "lat": "35.35.42",
      "lng": "137.13.35",
      "park": "206",
      "address": "岐阜県加茂郡白川町和泉97-1"
    },
    "そばの郷らっせぃみさと": {
      "name": "そばの郷らっせぃみさと",
      "lat": "35.24.09",
      "lng": "137.21.42",
      "park": "37",
      "address": "岐阜県恵那市三郷町佐々良木1461-1"
    },
    "大日岳": {
      "name": "大日岳",
      "lat": "35.59.04",
      "lng": "136.53.39",
      "park": "40",
      "address": "岐阜県郡上市高鷲町西洞3628-5"
    },
    "茶の里東白川": {
      "name": "茶の里東白川",
      "lat": "35.39.53",
      "lng": "137.21.20",
      "park": "19",
      "address": "岐阜県加茂郡東白川村越原1061"
    },
    "月見の里　南濃": {
      "name": "月見の里　南濃",
      "lat": "35.12.43",
      "lng": "136.36.13",
      "park": "134",
      "address": "岐阜県海津市南濃町羽沢673-1"
    },
    "土岐美濃焼街道": {
      "name": "土岐美濃焼街道",
      "lat": "35.19.58",
      "lng": "137.13.35",
      "park": "59",
      "address": "岐阜県土岐市肥田町肥田286-8"
    },
    "ななもり清見": {
      "name": "ななもり清見",
      "lat": "36.07.51",
      "lng": "137.10.10",
      "park": "95",
      "address": "岐阜県高山市清見町牧ヶ洞2145"
    },
    "日本昭和村": {
      "name": "日本昭和村",
      "lat": "35.28.14",
      "lng": "137.02.01",
      "park": "238",
      "address": "岐阜県美濃加茂市山之上町2292-1"
    },
    "パスカル清見": {
      "name": "パスカル清見",
      "lat": "35.56.15",
      "lng": "137.05.08",
      "park": "200",
      "address": "岐阜県高山市清見町大原858-1"
    },
    "花街道付知": {
      "name": "花街道付知",
      "lat": "35.38.22",
      "lng": "137.26.40",
      "park": "200",
      "address": "岐阜県中津川市付知町8581-1"
    },
    "半布里の郷　とみか": {
      "name": "半布里の郷　とみか",
      "lat": "35.28.16",
      "lng": "136.58.59",
      "park": "39",
      "address": "岐阜県加茂郡富加町羽生2174-1"
    },
    "ひだ朝日村": {
      "name": "ひだ朝日村",
      "lat": "36.05.05",
      "lng": "137.21.14",
      "park": "98",
      "address": "岐阜県高山市朝日町万石150"
    },
    "飛騨街道　なぎさ": {
      "name": "飛騨街道　なぎさ",
      "lat": "36.00.11",
      "lng": "137.17.42",
      "park": "64",
      "address": "岐阜県高山市久々野町渚2685"
    },
    "飛騨金山ぬく森の里温泉": {
      "name": "飛騨金山ぬく森の里温泉",
      "lat": "35.39.57",
      "lng": "137.09.01",
      "park": "295",
      "address": "岐阜県下呂市金山町金山911-1"
    },
    "飛騨たかね工房": {
      "name": "飛騨たかね工房",
      "lat": "36.02.37",
      "lng": "137.26.36",
      "park": "55",
      "address": "岐阜県高山市高根町中洞船渡767-1"
    },
    "飛騨白山": {
      "name": "飛騨白山",
      "lat": "36.10.15",
      "lng": "136.54.16",
      "park": "41",
      "address": "岐阜県大野郡白川村平瀬高ダイ516-62"
    },
    "飛騨古川いぶし": {
      "name": "飛騨古川いぶし",
      "lat": "36.12.39",
      "lng": "137.09.13",
      "park": "31",
      "address": "岐阜県飛騨市古川町畦畑2173-1"
    },
    "富有柿の里いとぬき": {
      "name": "富有柿の里いとぬき",
      "lat": "35.28.10",
      "lng": "136.40.44",
      "park": "92",
      "address": "岐阜県本巣市上保18-2"
    },
    "平成": {
      "name": "平成",
      "lat": "35.32.57",
      "lng": "137.00.01",
      "park": "119",
      "address": "岐阜県関市下之保2503-2"
    },
    "星のふる里ふじはし": {
      "name": "星のふる里ふじはし",
      "lat": "35.34.26",
      "lng": "136.27.57",
      "park": "129",
      "address": "岐阜県揖斐郡揖斐川町東横山264-1"
    },
    "馬瀬　美輝の里": {
      "name": "馬瀬　美輝の里",
      "lat": "35.49.00",
      "lng": "137.11.25",
      "park": "51",
      "address": "岐阜県下呂市馬瀬西村1450"
    },
    "美並": {
      "name": "美並",
      "lat": "35.36.21",
      "lng": "136.56.46",
      "park": "40",
      "address": "岐阜県郡上市美並町上田2817"
    },
    "南飛騨小坂": {
      "name": "南飛騨小坂",
      "lat": "35.55.42",
      "lng": "137.17.51",
      "park": "36",
      "address": "岐阜県下呂市小坂町赤沼田811-1"
    },
    "美濃白川": {
      "name": "美濃白川",
      "lat": "35.36.03",
      "lng": "137.10.37",
      "park": "75",
      "address": "岐阜県加茂郡白川町河東3500-1"
    },
    "美濃にわか茶屋": {
      "name": "美濃にわか茶屋",
      "lat": "35.33.05",
      "lng": "136.55.00",
      "park": "44",
      "address": "岐阜県美濃市曽代214"
    },
    "むげ川": {
      "name": "むげ川",
      "lat": "35.30.43",
      "lng": "136.51.26",
      "park": "61",
      "address": "岐阜県関市武芸川町跡部1810"
    },
    "明宝": {
      "name": "明宝",
      "lat": "35.50.32",
      "lng": "137.01.54",
      "park": "126",
      "address": "岐阜県郡上市明宝大谷1015"
    },
    "モンデウス飛騨位山": {
      "name": "モンデウス飛騨位山",
      "lat": "36.03.32",
      "lng": "137.13.46",
      "park": "40",
      "address": "岐阜県高山市一之宮町7846-1"
    },
    "夜叉ヶ池の里さかうち": {
      "name": "夜叉ヶ池の里さかうち",
      "lat": "35.35.56",
      "lng": "136.25.00",
      "park": "25",
      "address": "岐阜県揖斐郡揖斐川町坂内広瀬306"
    },
    "柳津": {
      "name": "柳津",
      "lat": "35.22.01",
      "lng": "136.44.04",
      "park": "54",
      "address": "岐阜県岐阜市柳津町仙右城7696-1"
    },
    "夢さんさん谷汲": {
      "name": "夢さんさん谷汲",
      "lat": "35.31.41",
      "lng": "136.35.22",
      "park": "27",
      "address": "岐阜県揖斐郡揖斐川町谷汲名礼1766-27"
    },
    "ラステンほらど": {
      "name": "ラステンほらど",
      "lat": "35.35.36",
      "lng": "136.48.05",
      "park": "40",
      "address": "岐阜県関市洞戸菅谷545"
    },
    "ロック・ガーデンひちそう": {
      "name": "ロック・ガーデンひちそう",
      "lat": "35.31.51",
      "lng": "137.07.02",
      "park": "95",
      "address": "岐阜県加茂郡七宗町中麻生字下夕打1176-3"
    },
    "和良": {
      "name": "和良",
      "lat": "35.44.22",
      "lng": "137.04.15",
      "park": "22",
      "address": "岐阜県郡上市和良町宮地1155"
    }
  },
  "静岡県": {
    "朝霧高原": {
      "name": "朝霧高原",
      "lat": "35.24.36",
      "lng": "138.35.39",
      "park": "83",
      "address": "静岡県富士宮市根原492-14"
    },
    "天城越え": {
      "name": "天城越え",
      "lat": "34.51.09",
      "lng": "138.55.32",
      "park": "315",
      "address": "静岡県伊豆市湯ヶ島892"
    },
    "伊豆のへそ": {
      "name": "伊豆のへそ",
      "lat": "35.00.30",
      "lng": "138.56.39",
      "park": "68",
      "address": "静岡県伊豆の国市田京195-2"
    },
    "いっぷく処　横川": {
      "name": "いっぷく処　横川",
      "lat": "34.54.08",
      "lng": "137.52.30",
      "park": "40",
      "address": "静岡県浜松市横川3085"
    },
    "伊東マリンタウン": {
      "name": "伊東マリンタウン",
      "lat": "34.58.55",
      "lng": "139.05.51",
      "park": "286",
      "address": "静岡県伊東市湯川571-19"
    },
    "宇津ノ谷峠 (1)": {
      "name": "宇津ノ谷峠 (1)",
      "lat": "34.56.03",
      "lng": "138.18.46",
      "park": "67",
      "address": "静岡県静岡市駿河区宇津ノ谷82-2"
    },
    "宇津ノ谷峠 (2)": {
      "name": "宇津ノ谷峠 (2)",
      "lat": "34.55.20",
      "lng": "138.18.14",
      "park": "45",
      "address": "静岡県志太郡岡部町岡部2190-1"
    },
    "奥大井音戯の郷": {
      "name": "奥大井音戯の郷",
      "lat": "35.06.14",
      "lng": "138.08.21",
      "park": "155",
      "address": "静岡県榛原郡川根本町千頭1217-2"
    },
    "開国下田みなと": {
      "name": "開国下田みなと",
      "lat": "34.40.17",
      "lng": "138.57.14",
      "park": "226",
      "address": "静岡県下田市外ヶ岡1-1"
    },
    "掛川": {
      "name": "掛川",
      "lat": "34.47.27",
      "lng": "138.04.45",
      "park": "150",
      "address": "静岡県掛川市八坂882-1"
    },
    "風のマルシェ　御前崎": {
      "name": "風のマルシェ　御前崎",
      "lat": "34.38.13",
      "lng": "138.06.50",
      "park": "113",
      "address": "静岡県御前崎市合戸海岸4384-1"
    },
    "川根温泉": {
      "name": "川根温泉",
      "lat": "34.57.24",
      "lng": "138.05.34",
      "park": "84",
      "address": "静岡県榛原郡川根町笹間渡220"
    },
    "玉露の里": {
      "name": "玉露の里",
      "lat": "34.56.51",
      "lng": "138.15.17",
      "park": "95",
      "address": "静岡県志太郡岡部町新舟1214-3"
    },
    "くるら戸田": {
      "name": "くるら戸田",
      "lat": "34.58.05",
      "lng": "138.47.24",
      "park": "47",
      "address": "静岡県沼津市戸田1294-3"
    },
    "くんま水車の里": {
      "name": "くんま水車の里",
      "lat": "34.57.32",
      "lng": "137.44.09",
      "park": "53",
      "address": "静岡県浜松市熊1977-2"
    },
    "潮見坂": {
      "name": "潮見坂",
      "lat": "34.40.26",
      "lng": "137.30.08",
      "park": "137",
      "address": "静岡県湖西市白須賀1896-2"
    },
    "下賀茂温泉　湯の花": {
      "name": "下賀茂温泉　湯の花",
      "lat": "34.38.47",
      "lng": "138.52.11",
      "park": "56",
      "address": "静岡県賀茂郡南伊豆町下賀茂157-1"
    },
    "すばしり": {
      "name": "すばしり",
      "lat": "35.21.34",
      "lng": "138.51.42",
      "park": "128",
      "address": "静岡県駿東郡小山町須走338-41"
    },
    "天竜相津　花桃の里": {
      "name": "天竜相津　花桃の里",
      "lat": "34.54.31",
      "lng": "137.49.05",
      "park": "50",
      "address": "静岡県浜松市大川31-10"
    },
    "花の三聖苑伊豆松崎": {
      "name": "花の三聖苑伊豆松崎",
      "lat": "34.45.16",
      "lng": "138.49.43",
      "park": "52",
      "address": "静岡県賀茂郡松崎町大沢20-1"
    },
    "フォーレなかかわね茶茗舘": {
      "name": "フォーレなかかわね茶茗舘",
      "lat": "35.04.02",
      "lng": "138.06.39",
      "park": "39",
      "address": "静岡県榛原郡川根本町水川71-1"
    },
    "富士": {
      "name": "富士",
      "lat": "35.07.48",
      "lng": "138.39.01",
      "park": "90",
      "address": "静岡県富士市五貫島669-1"
    },
    "ふじおやま": {
      "name": "ふじおやま",
      "lat": "35.20.28",
      "lng": "138.57.12",
      "park": "76",
      "address": "静岡県駿東郡小山町用沢72-2"
    },
    "富士川楽座": {
      "name": "富士川楽座",
      "lat": "35.09.31",
      "lng": "138.37.18",
      "park": "149",
      "address": "静岡県庵原郡富士川町岩渕1488-1"
    }
  },
  "愛知県": {
    "あかばねロコステーション": {
      "name": "あかばねロコステーション",
      "lat": "34.36.16",
      "lng": "137.11.32",
      "park": "62",
      "address": "愛知県田原市赤羽根町大西32-4"
    },
    "アグリステーションなぐら": {
      "name": "アグリステーションなぐら",
      "lat": "35.10.11",
      "lng": "137.32.16",
      "park": "23",
      "address": "愛知県北設楽郡設楽町西納庫字森田32"
    },
    "伊良湖クリスタルポルト": {
      "name": "伊良湖クリスタルポルト",
      "lat": "34.34.50",
      "lng": "137.01.24",
      "park": "110",
      "address": "愛知県田原市伊良湖町宮下3000-65"
    },
    "瀬戸しなの": {
      "name": "瀬戸しなの",
      "lat": "35.14.21",
      "lng": "137.07.05",
      "park": "71",
      "address": "愛知県瀬戸市品野町1-126-1"
    },
    "立田ふれあいの里": {
      "name": "立田ふれあいの里",
      "lat": "35.08.27",
      "lng": "136.41.51",
      "park": "71",
      "address": "愛知県愛西市森川町井桁西27"
    },
    "田原めっくんはうす": {
      "name": "田原めっくんはうす",
      "lat": "34.39.30",
      "lng": "137.16.31",
      "park": "130",
      "address": "愛知県田原市東赤石5-74"
    },
    "つぐ高原グリーンパーク": {
      "name": "つぐ高原グリーンパーク",
      "lat": "35.11.50",
      "lng": "137.36.28",
      "park": "50",
      "address": "愛知県北設楽郡設楽町津具字東山2-156"
    },
    "つくで手作り村": {
      "name": "つくで手作り村",
      "lat": "34.57.36",
      "lng": "137.25.25",
      "park": "68",
      "address": "愛知県新城市作手清岳字ナガラミ10-2"
    },
    "デンパーク安城": {
      "name": "デンパーク安城",
      "lat": "34.55.36",
      "lng": "137.03.51",
      "park": "93",
      "address": "愛知県安城市赤松町梶5"
    },
    "豊根グリーンポート宮嶋": {
      "name": "豊根グリーンポート宮嶋",
      "lat": "35.10.33",
      "lng": "137.41.09",
      "park": "23",
      "address": "愛知県北設楽郡豊根村坂宇場字宮ノ嶋29-3"
    },
    "どんぐりの里いなぶ": {
      "name": "どんぐりの里いなぶ",
      "lat": "35.12.38",
      "lng": "137.30.21",
      "park": "30",
      "address": "愛知県豊田市武節町針原4-1"
    },
    "にしお岡ノ山": {
      "name": "にしお岡ノ山",
      "lat": "34.52.25",
      "lng": "137.05.10",
      "park": "104",
      "address": "愛知県西尾市小島町岡ノ山105-57"
    },
    "藤川宿": {
      "name": "藤川宿",
      "lat": "34.54.39",
      "lng": "137.13.12",
      "park": "195",
      "address": "愛知県岡崎市藤川町東沖田44"
    },
    "筆柿の里・幸田": {
      "name": "筆柿の里・幸田",
      "lat": "34.50.43",
      "lng": "137.08.29",
      "park": "74",
      "address": "愛知県額田郡幸田町須美東山17-5"
    },
    "鳳来三河三石": {
      "name": "鳳来三河三石",
      "lat": "34.53.57",
      "lng": "137.36.59",
      "park": "43",
      "address": "愛知県新城市下吉田字田中106-1"
    },
    "もっくる新城": {
      "name": "もっくる新城",
      "lat": "34.54.52",
      "lng": "137.32.13",
      "park": "90",
      "address": "愛知県新城市八束穂五反田329-7"
    }
  },
  "三重県": {
    "あやま": {
      "name": "あやま",
      "lat": "34.50.29",
      "lng": "136.10.26",
      "park": "60",
      "address": "三重県伊賀市川合3370-29"
    },
    "飯高駅": {
      "name": "飯高駅",
      "lat": "34.25.27",
      "lng": "136.20.06",
      "park": "28",
      "address": "三重県松阪市飯高町宮前177"
    },
    "いが": {
      "name": "いが",
      "lat": "34.50.02",
      "lng": "136.15.23",
      "park": "147",
      "address": "三重県伊賀市柘植町6187-1"
    },
    "伊勢志摩": {
      "name": "伊勢志摩",
      "lat": "34.21.23",
      "lng": "136.48.04",
      "park": "22",
      "address": "三重県志摩市磯部町穴川511-5"
    },
    "奥伊勢おおだい": {
      "name": "奥伊勢おおだい",
      "lat": "34.23.26",
      "lng": "136.24.42",
      "park": "50",
      "address": "三重県多気郡大台町佐原663-1"
    },
    "奥伊勢木つつ木館": {
      "name": "奥伊勢木つつ木館",
      "lat": "34.21.51",
      "lng": "136.25.19",
      "park": "142",
      "address": "三重県度会郡大紀町滝原870-37"
    },
    "紀伊長島マンボウ": {
      "name": "紀伊長島マンボウ",
      "lat": "34.12.49",
      "lng": "136.20.58",
      "park": "61",
      "address": "三重県北牟婁郡紀北町紀伊長島区東長島2410-73"
    },
    "紀宝町ウミガメ公園": {
      "name": "紀宝町ウミガメ公園",
      "lat": "33.45.59",
      "lng": "136.01.53",
      "park": "27",
      "address": "三重県南牟婁郡紀宝町井田568-7"
    },
    "熊野きのくに": {
      "name": "熊野きのくに",
      "lat": "33.57.24",
      "lng": "136.06.26",
      "park": "53",
      "address": "三重県熊野市飛鳥町大又109-21"
    },
    "菰野": {
      "name": "菰野",
      "lat": "35.00.38",
      "lng": "136.30.22",
      "park": "30",
      "address": "三重県三重郡菰野町菰野2256"
    },
    "関宿": {
      "name": "関宿",
      "lat": "34.50.46",
      "lng": "136.23.44",
      "park": "44",
      "address": "三重県亀山市関町新所町674-8"
    },
    "茶倉駅": {
      "name": "茶倉駅",
      "lat": "34.27.26",
      "lng": "136.24.04",
      "park": "19",
      "address": "三重県松阪市飯南町粥見452-1"
    },
    "津かわげ": {
      "name": "津かわげ",
      "lat": "34.47.35",
      "lng": "136.31.14",
      "park": "80",
      "address": "三重県津市河芸町三行255-4"
    },
    "パーク七里御浜": {
      "name": "パーク七里御浜",
      "lat": "33.48.01",
      "lng": "136.02.45",
      "park": "66",
      "address": "三重県南牟婁郡御浜町阿田和4926-5"
    },
    "美杉": {
      "name": "美杉",
      "lat": "34.30.30",
      "lng": "136.18.35",
      "park": "75",
      "address": "三重県津市美杉町上多気267"
    },
    "海山": {
      "name": "海山",
      "lat": "34.05.56",
      "lng": "136.13.01",
      "park": "34",
      "address": "三重県北牟婁郡紀北町海山区相賀1439-3"
    }
  },
  "福井県": {
    "一乗谷あさくら水の駅": {
      "name": "一乗谷あさくら水の駅",
      "lat": "36.01.02",
      "lng": "136.17.51",
      "park": "26",
      "address": "福井県福井市安波賀中島町1-1-1"
    },
    "うみんぴあ大飯": {
      "name": "うみんぴあ大飯",
      "lat": "35.28.41",
      "lng": "135.37.58",
      "park": "36",
      "address": "福井県大飯郡おおい町成海1-1-2"
    },
    "越前": {
      "name": "越前",
      "lat": "35.55.01",
      "lng": "136.00.00",
      "park": "172",
      "address": "福井県丹生郡越前町厨71-335-1"
    },
    "九頭竜": {
      "name": "九頭竜",
      "lat": "35.54.04",
      "lng": "136.39.52",
      "park": "37",
      "address": "福井県大野市朝日26-30-1"
    },
    "河野": {
      "name": "河野",
      "lat": "35.47.37",
      "lng": "136.05.41",
      "park": "32",
      "address": "福井県南条郡南越前町大谷"
    },
    "さかい": {
      "name": "さかい",
      "lat": "36.10.04",
      "lng": "136.13.29",
      "park": "103",
      "address": "福井県坂井市坂井町蔵垣内34-14-1"
    },
    "シーサイド高浜": {
      "name": "シーサイド高浜",
      "lat": "35.29.08",
      "lng": "135.35.56",
      "park": "156",
      "address": "福井県大飯郡高浜町下車持46-10"
    },
    "禅の里": {
      "name": "禅の里",
      "lat": "36.04.37",
      "lng": "136.24.08",
      "park": "52",
      "address": "福井県吉田郡永平寺町清水2-21-1"
    },
    "名田庄": {
      "name": "名田庄",
      "lat": "35.23.29",
      "lng": "135.35.13",
      "park": "20",
      "address": "福井県大飯郡おおい町名田庄納田終109-4-1"
    },
    "西山公園": {
      "name": "西山公園",
      "lat": "35.56.44",
      "lng": "136.11.01",
      "park": "33",
      "address": "福井県鯖江市桜町3-950"
    },
    "パークイン丹生ヶ丘": {
      "name": "パークイン丹生ヶ丘",
      "lat": "35.57.59",
      "lng": "136.07.21",
      "park": "63",
      "address": "福井県丹生郡越前町上川去45-1-7"
    },
    "三方五湖": {
      "name": "三方五湖",
      "lat": "35.33.24",
      "lng": "135.53.49",
      "park": "51",
      "address": "福井県三方上中郡若狭町鳥浜第122号31-1"
    },
    "みくに": {
      "name": "みくに",
      "lat": "36.11.12",
      "lng": "136.08.31",
      "park": "102",
      "address": "福井県坂井市三国町山岸67-3-1"
    },
    "若狭おばま": {
      "name": "若狭おばま",
      "lat": "35.29.20",
      "lng": "135.45.57",
      "park": "91",
      "address": "福井県小浜市和久里24-45-2"
    },
    "若狭熊川宿": {
      "name": "若狭熊川宿",
      "lat": "35.26.15",
      "lng": "135.54.32",
      "park": "31",
      "address": "福井県三方上中郡若狭町熊川11号犂頭1-1"
    }
  },
  "滋賀県": {
    "あいの土山": {
      "name": "あいの土山",
      "lat": "34.55.28",
      "lng": "136.17.55",
      "park": "42",
      "address": "滋賀県甲賀市土山町北土山2900"
    },
    "アグリの郷栗東": {
      "name": "アグリの郷栗東",
      "lat": "35.02.08",
      "lng": "136.00.16",
      "park": "38",
      "address": "滋賀県栗東市出庭961-1"
    },
    "アグリパーク竜王": {
      "name": "アグリパーク竜王",
      "lat": "35.02.25",
      "lng": "136.08.53",
      "park": "100",
      "address": "滋賀県蒲生郡竜王町山之上6526"
    },
    "浅井三姉妹の郷": {
      "name": "浅井三姉妹の郷",
      "lat": "35.25.37",
      "lng": "136.18.32",
      "park": "61",
      "address": "滋賀県長浜市内保町2843"
    },
    "伊吹の里": {
      "name": "伊吹の里",
      "lat": "35.23.37",
      "lng": "136.22.26",
      "park": "34",
      "address": "滋賀県米原市伊吹1732-1"
    },
    "妹子の郷": {
      "name": "妹子の郷",
      "lat": "35.09.22",
      "lng": "135.54.15",
      "park": "122",
      "address": "滋賀県大津市和邇中528"
    },
    "近江母の郷": {
      "name": "近江母の郷",
      "lat": "35.20.25",
      "lng": "136.16.48",
      "park": "68",
      "address": "滋賀県米原市宇賀野1364-1"
    },
    "奥永源寺　渓流の里": {
      "name": "奥永源寺　渓流の里",
      "lat": "35.06.08",
      "lng": "136.22.30",
      "park": "49",
      "address": "滋賀県東近江市蓼畑町510"
    },
    "草津": {
      "name": "草津",
      "lat": "35.04.01",
      "lng": "135.56.32",
      "park": "57",
      "address": "滋賀県草津市下物町1436"
    },
    "くつき新本陣": {
      "name": "くつき新本陣",
      "lat": "35.20.52",
      "lng": "135.55.07",
      "park": "46",
      "address": "滋賀県高島市朽木市場777"
    },
    "湖北みずどりステーション": {
      "name": "湖北みずどりステーション",
      "lat": "35.26.31",
      "lng": "136.11.37",
      "park": "53",
      "address": "滋賀県長浜市湖北町今西1731-1"
    },
    "こんぜの里りっとう": {
      "name": "こんぜの里りっとう",
      "lat": "34.57.55",
      "lng": "136.02.31",
      "park": "40",
      "address": "滋賀県栗東市荒張1-11"
    },
    "塩津海道　あぢかまの里": {
      "name": "塩津海道　あぢかまの里",
      "lat": "35.31.02",
      "lng": "136.09.57",
      "park": "88",
      "address": "滋賀県伊香郡西浅井町塩津浜1765"
    },
    "しんあさひ風車村": {
      "name": "しんあさひ風車村",
      "lat": "35.20.51",
      "lng": "136.04.12",
      "park": "290",
      "address": "滋賀県高島市新旭町藁園336"
    },
    "せせらぎの里こうら": {
      "name": "せせらぎの里こうら",
      "lat": "35.11.55",
      "lng": "136.16.42",
      "park": "82",
      "address": "滋賀県犬上郡甲良町金屋1549-4"
    },
    "藤樹の里あどがわ": {
      "name": "藤樹の里あどがわ",
      "lat": "35.19.23",
      "lng": "136.01.58",
      "park": "116",
      "address": "滋賀県高島市安曇川町青柳1162-1"
    },
    "東近江市あいとうマーガレットステーション": {
      "name": "東近江市あいとうマーガレットステーション",
      "lat": "35.06.23",
      "lng": "136.15.42",
      "park": "100",
      "address": "滋賀県東近江市妹町184-1"
    },
    "びわ湖大橋　米プラザ": {
      "name": "びわ湖大橋　米プラザ",
      "lat": "35.07.17",
      "lng": "135.55.52",
      "park": "104",
      "address": "滋賀県大津市今堅田3-1-1 琵琶湖大橋西詰"
    },
    "マキノ追坂峠": {
      "name": "マキノ追坂峠",
      "lat": "35.28.40",
      "lng": "136.05.09",
      "park": "69",
      "address": "滋賀県高島市マキノ町海津897-27"
    },
    "竜王かがみの里": {
      "name": "竜王かがみの里",
      "lat": "35.04.57",
      "lng": "136.04.56",
      "park": "80",
      "address": "滋賀県蒲生郡竜王町鏡字獅々頭1231-2"
    }
  },
  "京都府": {
    "ウッディー京北": {
      "name": "ウッディー京北",
      "lat": "35.09.10",
      "lng": "135.38.09",
      "park": "36",
      "address": "京都府京都市右京区京北周山町上寺田1-1"
    },
    "海の京都　宮津": {
      "name": "海の京都　宮津",
      "lat": "35.32.06",
      "lng": "135.11.48",
      "park": "56",
      "address": "京都府宮津市浜町3007他"
    },
    "ガレリアかめおか": {
      "name": "ガレリアかめおか",
      "lat": "35.00.40",
      "lng": "135.34.10",
      "park": "411",
      "address": "京都府亀岡市余部町宝久保1-1"
    },
    "京丹波　味夢の里": {
      "name": "京丹波　味夢の里",
      "lat": "35.09.09",
      "lng": "135.25.08",
      "park": "186",
      "address": "京都府船井郡京丹波町曽根深シノ65-1"
    },
    "京都新光悦村": {
      "name": "京都新光悦村",
      "lat": "35.07.14",
      "lng": "135.29.06",
      "park": "37",
      "address": "京都府南丹市園部町曽我谷縄手15-3"
    },
    "くみはまＳＡＮＫＡＩＫＡＮ": {
      "name": "くみはまＳＡＮＫＡＩＫＡＮ",
      "lat": "35.37.38",
      "lng": "134.56.05",
      "park": "64",
      "address": "京都府京丹後市久美浜町浦明1709"
    },
    "シルクのまち　かや": {
      "name": "シルクのまち　かや",
      "lat": "35.28.42",
      "lng": "135.05.47",
      "park": "80",
      "address": "京都府与謝郡与謝野町字滝98"
    },
    "スプリングスひよし": {
      "name": "スプリングスひよし",
      "lat": "35.08.58",
      "lng": "135.31.08",
      "park": "278",
      "address": "京都府南丹市日吉町中宮ノ向8"
    },
    "丹後王国「食のみやこ」": {
      "name": "丹後王国「食のみやこ」",
      "lat": "35.40.22",
      "lng": "135.04.19",
      "park": "560",
      "address": "京都府京丹後市弥栄町鳥取123"
    },
    "丹波マーケス": {
      "name": "丹波マーケス",
      "lat": "35.09.06",
      "lng": "135.25.53",
      "park": "41",
      "address": "京都府船井郡京丹波町須知色紙田3-5"
    },
    "茶処和束（※登録抹消）": {
      "name": "茶処和束（※登録抹消）",
      "lat": "34.47.31",
      "lng": "135.54.12",
      "park": "24",
      "address": "京都府相楽郡和束町南小字下河原15-1"
    },
    "てんきてんき丹後": {
      "name": "てんきてんき丹後",
      "lat": "35.44.09",
      "lng": "135.06.28",
      "park": "42",
      "address": "京都府京丹後市丹後町竹野313-1"
    },
    "和": {
      "name": "和",
      "lat": "35.16.01",
      "lng": "135.24.01",
      "park": "68",
      "address": "京都府船井郡京丹波町坂原上モジリ11"
    },
    "農匠の郷やくの": {
      "name": "農匠の郷やくの",
      "lat": "35.20.07",
      "lng": "134.55.55",
      "park": "137",
      "address": "京都府福知山市夜久野町平野2150"
    },
    "舟屋の里伊根": {
      "name": "舟屋の里伊根",
      "lat": "35.40.17",
      "lng": "135.17.38",
      "park": "103",
      "address": "京都府与謝郡伊根町亀島459"
    },
    "舞鶴港とれとれセンター": {
      "name": "舞鶴港とれとれセンター",
      "lat": "35.26.50",
      "lng": "135.19.02",
      "park": "87",
      "address": "京都府舞鶴市下福井905"
    },
    "瑞穂の里・さらびき": {
      "name": "瑞穂の里・さらびき",
      "lat": "35.09.51",
      "lng": "135.21.51",
      "park": "27",
      "address": "京都府船井郡京丹波町大朴休石10-1"
    },
    "美山ふれあい広場": {
      "name": "美山ふれあい広場",
      "lat": "35.16.26",
      "lng": "135.35.27",
      "park": "73",
      "address": "京都府南丹市美山町安掛下23"
    }
  },
  "大阪府": {
    "愛彩ランド": {
      "name": "愛彩ランド",
      "lat": "34.25.08",
      "lng": "135.25.43",
      "park": "285",
      "address": "大阪府岸和田市三ヶ山町280-55"
    },
    "いずみ山愛の里": {
      "name": "いずみ山愛の里",
      "lat": "34.25.12",
      "lng": "135.29.09",
      "park": "130",
      "address": "大阪府和泉市仏並町398-1"
    },
    "かなん": {
      "name": "かなん",
      "lat": "34.28.31",
      "lng": "135.37.12",
      "park": "24",
      "address": "大阪府南河内郡河南町神山523-1他"
    },
    "しらとりの郷・羽曳野": {
      "name": "しらとりの郷・羽曳野",
      "lat": "34.31.47",
      "lng": "135.35.26",
      "park": "85",
      "address": "大阪府羽曳野市埴生野975-3"
    },
    "近つ飛鳥の里太子": {
      "name": "近つ飛鳥の里太子",
      "lat": "34.30.49",
      "lng": "135.39.40",
      "park": "30",
      "address": "大阪府南河内郡太子町山田2265-1"
    },
    "ちはやあかさか": {
      "name": "ちはやあかさか",
      "lat": "34.27.40",
      "lng": "135.37.43",
      "park": "77",
      "address": "大阪府南河内郡千早赤阪村水分263"
    },
    "とっとパーク小島": {
      "name": "とっとパーク小島",
      "lat": "34.18.42",
      "lng": "135.06.10",
      "park": "67",
      "address": "大阪府泉南郡岬町多奈川小島455-1"
    },
    "能勢（くりの郷）": {
      "name": "能勢（くりの郷）",
      "lat": "34.57.12",
      "lng": "135.24.14",
      "park": "36",
      "address": "大阪府豊能郡能勢町平野535"
    }
  },
  "兵庫県": {
    "あいおい白龍城": {
      "name": "あいおい白龍城",
      "lat": "34.48.04",
      "lng": "134.27.52",
      "park": "54",
      "address": "兵庫県相生市那波南本町1866-6"
    },
    "あおがき": {
      "name": "あおがき",
      "lat": "35.14.17",
      "lng": "135.00.45",
      "park": "44",
      "address": "兵庫県丹波市青垣町西芦田字笹渕516-1"
    },
    "あさご": {
      "name": "あさご",
      "lat": "35.14.38",
      "lng": "134.48.24",
      "park": "61",
      "address": "兵庫県朝来市多々良木字牧野213-1"
    },
    "あまるべ": {
      "name": "あまるべ",
      "lat": "35.38.46",
      "lng": "134.33.46",
      "park": "18",
      "address": "兵庫県美方郡香美町香住区余部1723-4"
    },
    "あゆの里　矢田川": {
      "name": "あゆの里　矢田川",
      "lat": "35.33.12",
      "lng": "134.34.24",
      "park": "17",
      "address": "兵庫県美方郡香美町村岡区長瀬933-1"
    },
    "あわじ": {
      "name": "あわじ",
      "lat": "34.35.52",
      "lng": "135.00.43",
      "park": "80",
      "address": "兵庫県淡路市岩屋1873-1"
    },
    "いながわ": {
      "name": "いながわ",
      "lat": "34.54.58",
      "lng": "135.21.17",
      "park": "33",
      "address": "兵庫県川辺郡猪名川町万善"
    },
    "うずしお": {
      "name": "うずしお",
      "lat": "34.14.19",
      "lng": "134.39.45",
      "park": "49",
      "address": "兵庫県南あわじ市福良丙947-22"
    },
    "淡河": {
      "name": "淡河",
      "lat": "34.48.36",
      "lng": "135.06.00",
      "park": "32",
      "address": "兵庫県神戸市北区淡河町淡河字弘法垣643-1"
    },
    "神鍋高原": {
      "name": "神鍋高原",
      "lat": "35.29.46",
      "lng": "134.40.40",
      "park": "63",
      "address": "兵庫県豊岡市日高町栗栖野59-13"
    },
    "北はりまエコミュージアム": {
      "name": "北はりまエコミュージアム",
      "lat": "35.00.16",
      "lng": "134.59.24",
      "park": "48",
      "address": "兵庫県西脇市寺内字天神池517-1"
    },
    "宿場町ひらふく": {
      "name": "宿場町ひらふく",
      "lat": "35.02.30",
      "lng": "134.22.20",
      "park": "28",
      "address": "兵庫県佐用郡佐用町平福988-1"
    },
    "しんぐう": {
      "name": "しんぐう",
      "lat": "34.55.08",
      "lng": "134.32.24",
      "park": "21",
      "address": "兵庫県たつの市新宮町平野99-2 "
    },
    "但馬のまほろば": {
      "name": "但馬のまほろば",
      "lat": "35.18.29",
      "lng": "134.52.22",
      "park": "167",
      "address": "兵庫県朝来市山東町大月字北山92-6"
    },
    "但馬楽座": {
      "name": "但馬楽座",
      "lat": "35.22.34",
      "lng": "134.47.12",
      "park": "300",
      "address": "兵庫県養父市上野299"
    },
    "丹波おばあちゃんの里": {
      "name": "丹波おばあちゃんの里",
      "lat": "35.09.46",
      "lng": "135.07.09",
      "park": "104",
      "address": "兵庫県丹波市春日町七日市710"
    },
    "ちくさ": {
      "name": "ちくさ",
      "lat": "35.06.17",
      "lng": "134.26.40",
      "park": "36",
      "address": "兵庫県宍粟市千種町下河野745-5"
    },
    "とうじょう": {
      "name": "とうじょう",
      "lat": "34.53.27",
      "lng": "135.04.42",
      "park": "53",
      "address": "兵庫県加東市南山1-5-1"
    },
    "はが": {
      "name": "はが",
      "lat": "35.11.55",
      "lng": "134.31.30",
      "park": "29",
      "address": "兵庫県宍粟市波賀町原149"
    },
    "ハチ北": {
      "name": "ハチ北",
      "lat": "35.24.30",
      "lng": "134.36.09",
      "park": "34",
      "address": "兵庫県美方郡香美町村岡区福岡608-1"
    },
    "播磨いちのみや": {
      "name": "播磨いちのみや",
      "lat": "35.05.07",
      "lng": "134.35.27",
      "park": "32",
      "address": "兵庫県宍粟市一宮町須行名"
    },
    "東浦ターミナルパーク": {
      "name": "東浦ターミナルパーク",
      "lat": "34.32.03",
      "lng": "134.59.43",
      "park": "362",
      "address": "兵庫県淡路市浦648"
    },
    "福良": {
      "name": "福良",
      "lat": "34.15.08",
      "lng": "134.43.19",
      "park": "59",
      "address": "兵庫県南あわじ市福良甲1528-1地先"
    },
    "フレッシュあさご": {
      "name": "フレッシュあさご",
      "lat": "35.12.34",
      "lng": "134.47.50",
      "park": "107",
      "address": "兵庫県朝来市岩津96"
    },
    "みき": {
      "name": "みき",
      "lat": "34.47.03",
      "lng": "134.58.48",
      "park": "129",
      "address": "兵庫県三木市福井2426番地先"
    },
    "みつ": {
      "name": "みつ",
      "lat": "34.46.36",
      "lng": "134.31.34",
      "park": "65",
      "address": "兵庫県たつの市御津町室津896-23"
    },
    "みなみ波賀": {
      "name": "みなみ波賀",
      "lat": "35.08.42",
      "lng": "134.32.33",
      "park": "40",
      "address": "兵庫県宍粟市波賀町安賀8-1"
    },
    "村岡ファームガーデン": {
      "name": "村岡ファームガーデン",
      "lat": "35.27.31",
      "lng": "134.36.20",
      "park": "59",
      "address": "兵庫県美方郡香美町村岡区大糠32-1"
    },
    "やぶ": {
      "name": "やぶ",
      "lat": "35.22.45",
      "lng": "134.49.07",
      "park": "33",
      "address": "兵庫県養父市養父市場1294-77"
    },
    "山崎（※登録抹消）": {
      "name": "山崎（※登録抹消）",
      "lat": "35.00.24",
      "lng": "134.33.05",
      "park": "70",
      "address": "兵庫県宍粟市山崎町今宿96-1"
    },
    "山田錦発祥のまち・多可": {
      "name": "山田錦発祥のまち・多可",
      "lat": "35.03.21",
      "lng": "134.55.18",
      "park": "28",
      "address": "兵庫県多可郡多可町中区岸上281-1"
    },
    "ようか但馬蔵": {
      "name": "ようか但馬蔵",
      "lat": "35.23.27",
      "lng": "134.44.43",
      "park": "134",
      "address": "兵庫県養父市八鹿町高柳241-1"
    },
    "Ｒ４２７かみ": {
      "name": "Ｒ４２７かみ",
      "lat": "35.11.09",
      "lng": "134.55.58",
      "park": "20",
      "address": "兵庫県多可郡多可町加美区鳥羽733-1"
    }
  },
  "奈良県": {
    "伊勢本街道　御杖": {
      "name": "伊勢本街道　御杖",
      "lat": "34.30.45",
      "lng": "136.12.09",
      "park": "96",
      "address": "奈良県宇陀郡御杖村神末6325"
    },
    "宇陀路　大宇陀": {
      "name": "宇陀路　大宇陀",
      "lat": "34.28.22",
      "lng": "135.56.06",
      "park": "20",
      "address": "奈良県宇陀市大宇陀区拾生714-1"
    },
    "宇陀路　室生": {
      "name": "宇陀路　室生",
      "lat": "34.34.24",
      "lng": "136.02.13",
      "park": "31",
      "address": "奈良県宇陀市室生区三本松3176-1"
    },
    "杉の湯　川上": {
      "name": "杉の湯　川上",
      "lat": "34.20.02",
      "lng": "135.57.27",
      "park": "54",
      "address": "奈良県吉野郡川上村迫695"
    },
    "十津川郷": {
      "name": "十津川郷",
      "lat": "33.59.06",
      "lng": "135.47.48",
      "park": "26",
      "address": "奈良県吉野郡十津川村小原225-1"
    },
    "針Ｔ・Ｒ・Ｓ": {
      "name": "針Ｔ・Ｒ・Ｓ",
      "lat": "34.36.26",
      "lng": "135.57.58",
      "park": "510",
      "address": "奈良県奈良市針町345"
    },
    "ふたかみパーク當麻": {
      "name": "ふたかみパーク當麻",
      "lat": "34.31.24",
      "lng": "135.41.46",
      "park": "82",
      "address": "奈良県葛城市新在家402-1"
    },
    "大和路へぐり": {
      "name": "大和路へぐり",
      "lat": "34.37.13",
      "lng": "135.42.32",
      "park": "42",
      "address": "奈良県生駒郡平群町平等寺75-1"
    },
    "吉野路　大塔": {
      "name": "吉野路　大塔",
      "lat": "34.12.39",
      "lng": "135.44.09",
      "park": "18",
      "address": "奈良県五條市大塔町阪本225-6"
    },
    "吉野路大淀ｉセンター": {
      "name": "吉野路大淀ｉセンター",
      "lat": "34.24.32",
      "lng": "135.47.59",
      "park": "61",
      "address": "奈良県吉野郡大淀町芦原536-1"
    },
    "吉野路　上北山": {
      "name": "吉野路　上北山",
      "lat": "34.08.11",
      "lng": "136.00.10",
      "park": "54",
      "address": "奈良県吉野郡上北山村河合字ハジ1-1"
    },
    "吉野路　黒滝": {
      "name": "吉野路　黒滝",
      "lat": "34.18.09",
      "lng": "135.49.34",
      "park": "37",
      "address": "奈良県吉野郡黒滝村長瀬22"
    }
  },
  "和歌山県": {
    "あらぎの里": {
      "name": "あらぎの里",
      "lat": "34.05.23",
      "lng": "135.24.56",
      "park": "27",
      "address": "和歌山県有田郡有田川町三田664-1"
    },
    "一枚岩": {
      "name": "一枚岩",
      "lat": "33.32.33",
      "lng": "135.43.23",
      "park": "22",
      "address": "和歌山県東牟婁郡古座川町相瀬290-2"
    },
    "イノブータンランド・すさみ": {
      "name": "イノブータンランド・すさみ",
      "lat": "33.31.02",
      "lng": "135.32.54",
      "park": "15",
      "address": "和歌山県西牟婁郡すさみ町見老津地内"
    },
    "奥熊野古道ほんぐう": {
      "name": "奥熊野古道ほんぐう",
      "lat": "33.51.42",
      "lng": "135.45.54",
      "park": "24",
      "address": "和歌山県田辺市本宮町伏拝904-4"
    },
    "おくとろ": {
      "name": "おくとろ",
      "lat": "33.56.09",
      "lng": "135.56.57",
      "park": "94",
      "address": "和歌山県東牟婁郡北山村下尾井字浦地335"
    },
    "柿の郷くどやま": {
      "name": "柿の郷くどやま",
      "lat": "34.17.24",
      "lng": "135.33.30",
      "park": "125",
      "address": "和歌山県伊都郡九度山町入郷5-5"
    },
    "かつらぎ西": {
      "name": "かつらぎ西",
      "lat": "34.17.40",
      "lng": "135.28.37",
      "park": "56",
      "address": "和歌山県伊都郡かつらぎ町笠田東1271-28"
    },
    "紀州備長炭記念公園": {
      "name": "紀州備長炭記念公園",
      "lat": "33.48.00",
      "lng": "135.25.48",
      "park": "21",
      "address": "和歌山県田辺市秋津川1491-1"
    },
    "紀の川万葉の里": {
      "name": "紀の川万葉の里",
      "lat": "34.16.52",
      "lng": "135.28.02",
      "park": "37",
      "address": "和歌山県伊都郡かつらぎ町窪"
    },
    "くしもと橋杭岩": {
      "name": "くしもと橋杭岩",
      "lat": "33.29.05",
      "lng": "135.47.50",
      "park": "53",
      "address": "和歌山県東牟婁郡串本町鬮野川1549-8"
    },
    "くちくまの": {
      "name": "くちくまの",
      "lat": "33.41.18",
      "lng": "135.25.00",
      "park": "44",
      "address": "和歌山県西牟婁郡上富田町岩崎555-5"
    },
    "熊野古道中辺路": {
      "name": "熊野古道中辺路",
      "lat": "33.48.32",
      "lng": "135.35.52",
      "park": "20",
      "address": "和歌山県田辺市中辺路町近露2474-1"
    },
    "Ｓａｎ　Ｐｉｎ　中津": {
      "name": "Ｓａｎ　Ｐｉｎ　中津",
      "lat": "33.56.48",
      "lng": "135.15.58",
      "park": "24",
      "address": "和歌山県日高郡日高川町船津820"
    },
    "志原海岸": {
      "name": "志原海岸",
      "lat": "33.34.01",
      "lng": "135.26.03",
      "park": "68",
      "address": "和歌山県西牟婁郡白浜町日置2039-73"
    },
    "しみず": {
      "name": "しみず",
      "lat": "34.05.06",
      "lng": "135.26.46",
      "park": "110",
      "address": "和歌山県有田郡有田川町清水607"
    },
    "白崎海洋公園": {
      "name": "白崎海洋公園",
      "lat": "33.58.26",
      "lng": "135.04.30",
      "park": "199",
      "address": "和歌山県日高郡由良町大引960-1"
    },
    "しらまの里": {
      "name": "しらまの里",
      "lat": "34.00.42",
      "lng": "135.20.14",
      "park": "21",
      "address": "和歌山県有田郡有田川町宇井苔213-1"
    },
    "すさみ": {
      "name": "すさみ",
      "lat": "33.30.08",
      "lng": "135.36.09",
      "park": "69",
      "address": "和歌山県西牟婁郡すさみ町江住808-1"
    },
    "青洲の里": {
      "name": "青洲の里",
      "lat": "34.16.39",
      "lng": "135.26.40",
      "park": "54",
      "address": "和歌山県紀の川市西野山473"
    },
    "たいじ": {
      "name": "たいじ",
      "lat": "33.35.19",
      "lng": "135.56.11",
      "park": "57",
      "address": "和歌山県東牟婁郡太地町森浦143-1"
    },
    "瀧之拝太郎": {
      "name": "瀧之拝太郎",
      "lat": "33.35.53",
      "lng": "135.46.06",
      "park": "40",
      "address": "和歌山県東牟婁郡古座川町小川774-1"
    },
    "田辺市龍神ごまさんスカイタワー": {
      "name": "田辺市龍神ごまさんスカイタワー",
      "lat": "34.03.29",
      "lng": "135.34.02",
      "park": "54",
      "address": "和歌山県田辺市龍神村龍神1020-6"
    },
    "椿はなの湯": {
      "name": "椿はなの湯",
      "lat": "33.36.00",
      "lng": "135.23.40",
      "park": "19",
      "address": "和歌山県西牟婁郡白浜町椿1058-1"
    },
    "瀞峡街道　熊野川": {
      "name": "瀞峡街道　熊野川",
      "lat": "33.47.13",
      "lng": "135.53.58",
      "park": "45",
      "address": "和歌山県新宮市熊野川町田長47"
    },
    "なち": {
      "name": "なち",
      "lat": "33.38.27",
      "lng": "135.56.22",
      "park": "59",
      "address": "和歌山県東牟婁郡那智勝浦町浜ノ宮361-2"
    },
    "根来さくらの里": {
      "name": "根来さくらの里",
      "lat": "34.18.31",
      "lng": "135.18.35",
      "park": "21",
      "address": "和歌山県岩出市押川37-1"
    },
    "ふるさとセンター大塔": {
      "name": "ふるさとセンター大塔",
      "lat": "33.44.22",
      "lng": "135.30.17",
      "park": "17",
      "address": "和歌山県田辺市鮎川1000"
    },
    "水の郷日高川　龍游": {
      "name": "水の郷日高川　龍游",
      "lat": "33.53.32",
      "lng": "135.26.31",
      "park": "46",
      "address": "和歌山県田辺市龍神村福井511"
    },
    "みなべうめ振興館": {
      "name": "みなべうめ振興館",
      "lat": "33.47.14",
      "lng": "135.19.47",
      "park": "54",
      "address": "和歌山県日高郡みなべ町谷口538-1"
    },
    "明恵ふるさと館": {
      "name": "明恵ふるさと館",
      "lat": "34.03.03",
      "lng": "135.15.56",
      "park": "31",
      "address": "和歌山県有田郡有田川町金屋322-1"
    },
    "虫喰岩": {
      "name": "虫喰岩",
      "lat": "33.32.10",
      "lng": "135.49.45",
      "park": "34",
      "address": "和歌山県東牟婁郡古座川町池野山705-1"
    },
    "龍神": {
      "name": "龍神",
      "lat": "33.57.43",
      "lng": "135.34.03",
      "park": "28",
      "address": "和歌山県田辺市龍神村龍神170-3"
    }
  },
  "鳥取県": {
    "犬挟": {
      "name": "犬挟",
      "lat": "35.19.34",
      "lng": "133.45.32",
      "park": "39",
      "address": "鳥取県倉吉市関金町山口2030-46"
    },
    "燕趙園": {
      "name": "燕趙園",
      "lat": "35.27.41",
      "lng": "133.53.43",
      "park": "169",
      "address": "鳥取県東伯郡湯梨浜町引地563-1"
    },
    "奥大山": {
      "name": "奥大山",
      "lat": "35.17.34",
      "lng": "133.28.36",
      "park": "43",
      "address": "鳥取県日野郡江府町佐川908-3"
    },
    "きなんせ岩美": {
      "name": "きなんせ岩美",
      "lat": "35.33.52",
      "lng": "134.19.42",
      "park": "75",
      "address": "鳥取県岩美郡岩美町新井337-4"
    },
    "神話の里　白うさぎ": {
      "name": "神話の里　白うさぎ",
      "lat": "35.31.21",
      "lng": "134.07.01",
      "park": "128",
      "address": "鳥取県鳥取市白兎613"
    },
    "清流茶屋　かわはら": {
      "name": "清流茶屋　かわはら",
      "lat": "35.23.25",
      "lng": "134.12.20",
      "park": "104",
      "address": "鳥取県鳥取市河原町高福837"
    },
    "大栄": {
      "name": "大栄",
      "lat": "35.29.44",
      "lng": "133.45.52",
      "park": "63",
      "address": "鳥取県東伯郡北栄町由良宿1458-10 "
    },
    "大山恵みの里": {
      "name": "大山恵みの里",
      "lat": "35.30.05",
      "lng": "133.30.17",
      "park": "20",
      "address": "鳥取県西伯郡大山町名和951-6"
    },
    "にちなん日野川の郷": {
      "name": "にちなん日野川の郷",
      "lat": "35.10.03",
      "lng": "133.18.48",
      "park": "83",
      "address": "鳥取県日野郡日南町生山385"
    },
    "はっとう": {
      "name": "はっとう",
      "lat": "35.21.48",
      "lng": "134.20.32",
      "park": "137",
      "address": "鳥取県八頭郡八頭町徳丸625"
    },
    "はわい": {
      "name": "はわい",
      "lat": "35.29.28",
      "lng": "133.53.35",
      "park": "66",
      "address": "鳥取県東伯郡湯梨浜町宇野2343"
    },
    "北条公園": {
      "name": "北条公園",
      "lat": "35.29.42",
      "lng": "133.49.21",
      "park": "126",
      "address": "鳥取県東伯郡北栄町国坂1525-92 "
    },
    "ポート赤碕": {
      "name": "ポート赤碕",
      "lat": "35.30.13",
      "lng": "133.39.53",
      "park": "50",
      "address": "鳥取県東伯郡琴浦町別所255"
    },
    "三朝・楽市楽座": {
      "name": "三朝・楽市楽座",
      "lat": "35.21.47",
      "lng": "133.51.11",
      "park": "40",
      "address": "鳥取県東伯郡三朝町大柿591"
    },
    "若桜": {
      "name": "若桜",
      "lat": "35.20.27",
      "lng": "134.24.11",
      "park": "40",
      "address": "鳥取県八頭郡若桜町若桜983-2"
    }
  },
  "島根県": {
    "秋鹿なぎさ公園": {
      "name": "秋鹿なぎさ公園",
      "lat": "35.28.17",
      "lng": "132.57.12",
      "park": "42",
      "address": "島根県松江市岡本町1048-1"
    },
    "赤来高原": {
      "name": "赤来高原",
      "lat": "34.59.45",
      "lng": "132.42.59",
      "park": "153",
      "address": "島根県飯石郡飯南町下赤名880-2"
    },
    "あらエッサ": {
      "name": "あらエッサ",
      "lat": "35.24.23",
      "lng": "133.18.54",
      "park": "89",
      "address": "島根県安来市中海町118-1"
    },
    "インフォメーションセンターかわもと": {
      "name": "インフォメーションセンターかわもと",
      "lat": "34.57.46",
      "lng": "132.28.32",
      "park": "46",
      "address": "島根県邑智郡川本町因原505-5"
    },
    "奥出雲おろちループ": {
      "name": "奥出雲おろちループ",
      "lat": "35.05.34",
      "lng": "133.07.49",
      "park": "87",
      "address": "島根県仁多郡奥出雲町八川2500-294"
    },
    "おろちの里": {
      "name": "おろちの里",
      "lat": "35.13.02",
      "lng": "132.57.53",
      "park": "56",
      "address": "島根県雲南市木次町北原1603"
    },
    "かきのきむら": {
      "name": "かきのきむら",
      "lat": "34.26.22",
      "lng": "131.52.11",
      "park": "28",
      "address": "島根県鹿足郡吉賀町柿木村柿木500-1 "
    },
    "掛合の里": {
      "name": "掛合の里",
      "lat": "35.12.26",
      "lng": "132.49.10",
      "park": "39",
      "address": "島根県雲南市掛合町掛合1800-2"
    },
    "キララ多伎": {
      "name": "キララ多伎",
      "lat": "35.17.15",
      "lng": "132.38.06",
      "park": "117",
      "address": "島根県出雲市多伎町多岐135-1外"
    },
    "グリーンロード大和": {
      "name": "グリーンロード大和",
      "lat": "34.57.52",
      "lng": "132.38.39",
      "park": "27",
      "address": "島根県邑智郡美郷町長藤248-2"
    },
    "酒蔵奥出雲交流館": {
      "name": "酒蔵奥出雲交流館",
      "lat": "35.13.27",
      "lng": "133.05.21",
      "park": "40",
      "address": "島根県仁多郡奥出雲町亀嵩1380-1"
    },
    "さくらの里きすき": {
      "name": "さくらの里きすき",
      "lat": "35.18.57",
      "lng": "132.54.53",
      "park": "63",
      "address": "島根県雲南市木次町山方1134-9"
    },
    "サンエイト美都": {
      "name": "サンエイト美都",
      "lat": "34.41.04",
      "lng": "132.01.29",
      "park": "29",
      "address": "島根県益田市美都町宇津川口586-2"
    },
    "サンピコごうつ": {
      "name": "サンピコごうつ",
      "lat": "35.02.31",
      "lng": "132.18.05",
      "park": "62",
      "address": "島根県江津市後地町995-1"
    },
    "シルクウェイにちはら": {
      "name": "シルクウェイにちはら",
      "lat": "34.33.02",
      "lng": "131.48.32",
      "park": "55",
      "address": "島根県鹿足郡津和野町池村1997 "
    },
    "大社ご縁広場": {
      "name": "大社ご縁広場",
      "lat": "35.23.10",
      "lng": "132.41.20",
      "park": "210",
      "address": "島根県出雲市大社町修理免735-5"
    },
    "たたらば壱番地": {
      "name": "たたらば壱番地",
      "lat": "35.09.50",
      "lng": "132.49.58",
      "park": "29",
      "address": "島根県雲南市吉田町吉田4378-31"
    },
    "津和野温泉　なごみの里": {
      "name": "津和野温泉　なごみの里",
      "lat": "34.26.49",
      "lng": "131.45.48",
      "park": "109",
      "address": "島根県鹿足郡津和野町鷲原イ257"
    },
    "頓原": {
      "name": "頓原",
      "lat": "35.05.10",
      "lng": "132.47.18",
      "park": "71",
      "address": "島根県飯石郡飯南町花栗48"
    },
    "匹見峡": {
      "name": "匹見峡",
      "lat": "34.38.23",
      "lng": "132.05.39",
      "park": "23",
      "address": "島根県益田市匹見町道川イ65-1"
    },
    "広瀬・富田城": {
      "name": "広瀬・富田城",
      "lat": "35.21.55",
      "lng": "133.11.00",
      "park": "54",
      "address": "島根県安来市広瀬町町帳775-1"
    },
    "本庄": {
      "name": "本庄",
      "lat": "35.30.54",
      "lng": "133.08.21",
      "park": "37",
      "address": "島根県松江市野原町401-8"
    },
    "瑞穂": {
      "name": "瑞穂",
      "lat": "34.51.05",
      "lng": "132.31.17",
      "park": "21",
      "address": "島根県邑智郡邑南町下田所260-3"
    },
    "むいかいち温泉": {
      "name": "むいかいち温泉",
      "lat": "34.20.58",
      "lng": "131.56.46",
      "park": "132",
      "address": "島根県鹿足郡吉賀町有飯225-1"
    },
    "ゆうひパーク浜田": {
      "name": "ゆうひパーク浜田",
      "lat": "34.53.09",
      "lng": "132.04.25",
      "park": "107",
      "address": "島根県浜田市原井町1203-1"
    },
    "ゆうひパーク三隅": {
      "name": "ゆうひパーク三隅",
      "lat": "34.49.02",
      "lng": "131.58.46",
      "park": "37",
      "address": "島根県浜田市三隅町折居220-1 "
    },
    "湯の川": {
      "name": "湯の川",
      "lat": "35.23.33",
      "lng": "132.52.19",
      "park": "75",
      "address": "島根県簸川郡斐川町学頭825-1"
    },
    "ロード銀山": {
      "name": "ロード銀山",
      "lat": "35.13.08",
      "lng": "132.31.00",
      "park": "51",
      "address": "島根県大田市久手町刺鹿1945-1"
    }
  },
  "岡山県": {
    "あわくらんど": {
      "name": "あわくらんど",
      "lat": "35.10.37",
      "lng": "134.20.17",
      "park": "43",
      "address": "岡山県英田郡西粟倉村影石418"
    },
    "一本松展望園": {
      "name": "一本松展望園",
      "lat": "34.39.11",
      "lng": "134.10.06",
      "park": "300",
      "address": "岡山県瀬戸内市邑久町尻海3539"
    },
    "奥津温泉": {
      "name": "奥津温泉",
      "lat": "35.13.13",
      "lng": "133.55.32",
      "park": "79",
      "address": "岡山県苫田郡鏡野町奥津463"
    },
    "笠岡ベイファーム": {
      "name": "笠岡ベイファーム",
      "lat": "34.28.13",
      "lng": "133.30.10",
      "park": "43",
      "address": "岡山県笠岡市カブト南町245-4"
    },
    "風の家": {
      "name": "風の家",
      "lat": "35.16.25",
      "lng": "133.37.36",
      "park": "65",
      "address": "岡山県真庭市蒜山上徳山1380-6"
    },
    "かもがわ円城": {
      "name": "かもがわ円城",
      "lat": "34.53.20",
      "lng": "133.49.00",
      "park": "29",
      "address": "岡山県加賀郡吉備中央町上田西2325-1"
    },
    "かよう": {
      "name": "かよう",
      "lat": "34.48.48",
      "lng": "133.42.29",
      "park": "49",
      "address": "岡山県加賀郡吉備中央町北1977-1"
    },
    "くめなん": {
      "name": "くめなん",
      "lat": "34.54.32",
      "lng": "133.56.59",
      "park": "52",
      "address": "岡山県久米郡久米南町下二ケ1367-1"
    },
    "久米の里": {
      "name": "久米の里",
      "lat": "35.03.10",
      "lng": "133.55.32",
      "park": "54",
      "address": "岡山県津山市宮尾563-1"
    },
    "黒井山グリーンパーク": {
      "name": "黒井山グリーンパーク",
      "lat": "34.41.25",
      "lng": "134.12.26",
      "park": "364",
      "address": "岡山県瀬戸内市邑久町虫明5165-100"
    },
    "鯉が窪": {
      "name": "鯉が窪",
      "lat": "34.55.43",
      "lng": "133.20.03",
      "park": "38",
      "address": "岡山県新見市哲西町矢田3604"
    },
    "彩菜茶屋": {
      "name": "彩菜茶屋",
      "lat": "35.00.41",
      "lng": "134.09.12",
      "park": "37",
      "address": "岡山県美作市明見167"
    },
    "醍醐の里": {
      "name": "醍醐の里",
      "lat": "34.59.17",
      "lng": "133.43.40",
      "park": "51",
      "address": "岡山県真庭市鹿田391-1"
    },
    "蒜山高原": {
      "name": "蒜山高原",
      "lat": "35.17.30",
      "lng": "133.40.14",
      "park": "45",
      "address": "岡山県真庭市蒜山富山根694-129"
    },
    "みやま公園": {
      "name": "みやま公園",
      "lat": "34.31.01",
      "lng": "133.55.46",
      "park": "1020",
      "address": "岡山県玉野市田井2-4464"
    },
    "メルヘンの里　新庄": {
      "name": "メルヘンの里　新庄",
      "lat": "35.10.20",
      "lng": "133.34.28",
      "park": "50",
      "address": "岡山県真庭郡新庄村2190-1"
    }
  },
  "広島県": {
    "アリストぬまくま": {
      "name": "アリストぬまくま",
      "lat": "34.23.29",
      "lng": "133.19.12",
      "park": "36",
      "address": "広島県福山市沼隈町常石1805"
    },
    "北の関宿安芸高田": {
      "name": "北の関宿安芸高田",
      "lat": "34.43.05",
      "lng": "132.41.00",
      "park": "72",
      "address": "広島県安芸高田市美土里町横田331"
    },
    "クロスロードみつぎ": {
      "name": "クロスロードみつぎ",
      "lat": "34.30.29",
      "lng": "133.08.50",
      "park": "79",
      "address": "広島県尾道市御調町大田33"
    },
    "湖畔の里福富": {
      "name": "湖畔の里福富",
      "lat": "34.31.44",
      "lng": "132.46.43",
      "park": "170",
      "address": "広島県東広島市福富町久芳1506"
    },
    "さんわ１８２ステーション": {
      "name": "さんわ１８２ステーション",
      "lat": "34.40.15",
      "lng": "133.18.08",
      "park": "110",
      "address": "広島県神石郡神石高原町坂瀬川5146-2"
    },
    "スパ羅漢": {
      "name": "スパ羅漢",
      "lat": "34.23.09",
      "lng": "132.06.24",
      "park": "38",
      "address": "広島県廿日市市飯山21-5"
    },
    "世羅": {
      "name": "世羅",
      "lat": "34.35.33",
      "lng": "133.05.11",
      "park": "90",
      "address": "広島県世羅郡世羅町川尻大柳2402-1"
    },
    "たかの": {
      "name": "たかの",
      "lat": "35.01.15",
      "lng": "132.53.03",
      "park": "55",
      "address": "広島県庄原市高野町下門田49"
    },
    "たけはら": {
      "name": "たけはら",
      "lat": "34.20.26",
      "lng": "132.54.53",
      "park": "58",
      "address": "広島県竹原市本町1-1-1"
    },
    "豊平どんぐり村": {
      "name": "豊平どんぐり村",
      "lat": "34.38.37",
      "lng": "132.26.50",
      "park": "216",
      "address": "広島県山県郡北広島町都志見2609"
    },
    "ふぉレスト君田": {
      "name": "ふぉレスト君田",
      "lat": "34.53.47",
      "lng": "132.51.08",
      "park": "95",
      "address": "広島県三次市君田町泉吉田311-3"
    },
    "舞ロードＩＣ千代田": {
      "name": "舞ロードＩＣ千代田",
      "lat": "34.40.17",
      "lng": "132.32.37",
      "park": "133",
      "address": "広島県山県郡北広島町有田1122"
    },
    "みはら神明の里": {
      "name": "みはら神明の里",
      "lat": "34.23.37",
      "lng": "133.06.24",
      "park": "88",
      "address": "広島県三原市糸崎4-21-1"
    },
    "遊ＹＯＵさろん東城": {
      "name": "遊ＹＯＵさろん東城",
      "lat": "34.53.11",
      "lng": "133.16.42",
      "park": "65",
      "address": "広島県庄原市東城町川東471"
    },
    "ゆめランド布野": {
      "name": "ゆめランド布野",
      "lat": "34.51.09",
      "lng": "132.47.59",
      "park": "60",
      "address": "広島県三次市布野町下布野661-1"
    },
    "よがんす白竜": {
      "name": "よがんす白竜",
      "lat": "34.30.12",
      "lng": "132.54.59",
      "park": "21",
      "address": "広島県三原市大和町和木652-3"
    },
    "来夢とごうち": {
      "name": "来夢とごうち",
      "lat": "34.34.17",
      "lng": "132.16.20",
      "park": "99",
      "address": "広島県山県郡安芸太田町上殿632-2"
    },
    "リストアステーション": {
      "name": "リストアステーション",
      "lat": "34.46.53",
      "lng": "133.04.26",
      "park": "22",
      "address": "広島県庄原市総領町下領家1-3"
    }
  },
  "山口県": {
    "あいお": {
      "name": "あいお",
      "lat": "34.01.32",
      "lng": "131.27.35",
      "park": "20",
      "address": "山口県山口市秋穂東1520-4"
    },
    "あさひ": {
      "name": "あさひ",
      "lat": "34.16.59",
      "lng": "131.27.43",
      "park": "31",
      "address": "山口県萩市佐々並2476-1"
    },
    "阿武町": {
      "name": "阿武町",
      "lat": "34.29.41",
      "lng": "131.28.15",
      "park": "80",
      "address": "山口県阿武郡阿武町奈古2249"
    },
    "うり坊の郷　ｋａｔａｍａｔａ": {
      "name": "うり坊の郷　ｋａｔａｍａｔａ",
      "lat": "34.28.48",
      "lng": "131.38.05",
      "park": "33",
      "address": "山口県萩市片俣字円明1244-7"
    },
    "おふく": {
      "name": "おふく",
      "lat": "34.14.04",
      "lng": "131.12.39",
      "park": "47",
      "address": "山口県美祢市於福町上4383-1 "
    },
    "上関海峡": {
      "name": "上関海峡",
      "lat": "33.49.53",
      "lng": "132.07.09",
      "park": "50",
      "address": "山口県熊毛郡上関町室津904-15"
    },
    "願成就温泉": {
      "name": "願成就温泉",
      "lat": "34.25.52",
      "lng": "131.46.23",
      "park": "66",
      "address": "山口県山口市阿東徳佐上2-95"
    },
    "きくがわ": {
      "name": "きくがわ",
      "lat": "34.07.22",
      "lng": "131.02.02",
      "park": "24",
      "address": "山口県下関市菊川町上岡枝766-1"
    },
    "北浦街道　豊北": {
      "name": "北浦街道　豊北",
      "lat": "34.18.26",
      "lng": "130.53.28",
      "park": "117",
      "address": "山口県下関市豊北町神田上314-1"
    },
    "きらら　あじす": {
      "name": "きらら　あじす",
      "lat": "34.00.34",
      "lng": "131.22.19",
      "park": "98",
      "address": "山口県山口市阿知須509-88"
    },
    "サザンセトとうわ": {
      "name": "サザンセトとうわ",
      "lat": "33.54.03",
      "lng": "132.20.39",
      "park": "100",
      "address": "山口県大島郡周防大島町西方高田1958-77"
    },
    "潮彩市場防府": {
      "name": "潮彩市場防府",
      "lat": "34.02.04",
      "lng": "131.35.59",
      "park": "152",
      "address": "山口県防府市新築地町2-3"
    },
    "ソレーネ周南": {
      "name": "ソレーネ周南",
      "lat": "34.04.16",
      "lng": "131.41.26",
      "park": "170",
      "address": "山口県周南市戸田2713"
    },
    "長門峡": {
      "name": "長門峡",
      "lat": "34.17.59",
      "lng": "131.34.43",
      "park": "32",
      "address": "山口県山口市阿東生雲東分47-1"
    },
    "仁保の郷": {
      "name": "仁保の郷",
      "lat": "34.12.28",
      "lng": "131.33.42",
      "park": "85",
      "address": "山口県山口市仁保中郷1034"
    },
    "萩往還": {
      "name": "萩往還",
      "lat": "34.21.59",
      "lng": "131.24.56",
      "park": "66",
      "address": "山口県萩市椿字鹿背ケ坂1258"
    },
    "萩・さんさん三見": {
      "name": "萩・さんさん三見",
      "lat": "34.23.09",
      "lng": "131.19.28",
      "park": "41",
      "address": "山口県萩市三見1028-2 "
    },
    "萩しーまーと": {
      "name": "萩しーまーと",
      "lat": "34.25.23",
      "lng": "131.25.00",
      "park": "71",
      "address": "山口県萩市椿東北前小畑4160-61"
    },
    "ハピネスふくえ": {
      "name": "ハピネスふくえ",
      "lat": "34.25.50",
      "lng": "131.29.06",
      "park": "115",
      "address": "山口県萩市福井下4014-2"
    },
    "ピュアラインにしき": {
      "name": "ピュアラインにしき",
      "lat": "34.16.31",
      "lng": "131.58.19",
      "park": "45",
      "address": "山口県岩国市錦町府谷117 "
    },
    "蛍街道西ノ市": {
      "name": "蛍街道西ノ市",
      "lat": "34.11.43",
      "lng": "131.04.45",
      "park": "114",
      "address": "山口県下関市豊田町中村876-4"
    },
    "みとう": {
      "name": "みとう",
      "lat": "34.12.53",
      "lng": "131.20.46",
      "park": "67",
      "address": "山口県美祢郡美東町大田字近光5480-1 "
    },
    "ゆとりパークたまがわ": {
      "name": "ゆとりパークたまがわ",
      "lat": "34.38.43",
      "lng": "131.40.03",
      "park": "128",
      "address": "山口県萩市下田万2849-1"
    }
  },
  "徳島県": {
    "藍ランドうだつ": {
      "name": "藍ランドうだつ",
      "lat": "34.03.49",
      "lng": "134.08.59",
      "park": "45",
      "address": "徳島県美馬市脇町大字脇町55"
    },
    "大歩危": {
      "name": "大歩危",
      "lat": "33.52.42",
      "lng": "133.45.46",
      "park": "36",
      "address": "徳島県三好市山城町上名1553-1"
    },
    "温泉の里神山": {
      "name": "温泉の里神山",
      "lat": "33.58.13",
      "lng": "134.22.13",
      "park": "18",
      "address": "徳島県名西郡神山町神領字西上角151-1"
    },
    "公方の郷なかがわ": {
      "name": "公方の郷なかがわ",
      "lat": "33.56.59",
      "lng": "134.40.14",
      "park": "67",
      "address": "徳島県阿南市那賀川町工地大久保22-6"
    },
    "貞光ゆうゆう館": {
      "name": "貞光ゆうゆう館",
      "lat": "34.02.21",
      "lng": "134.03.46",
      "park": "41",
      "address": "徳島県美馬郡つるぎ町貞光字大須賀11-1"
    },
    "宍喰温泉": {
      "name": "宍喰温泉",
      "lat": "33.33.57",
      "lng": "134.18.35",
      "park": "30",
      "address": "徳島県海部郡海陽町久保板取219-6"
    },
    "第九の里": {
      "name": "第九の里",
      "lat": "34.09.38",
      "lng": "134.30.05",
      "park": "56",
      "address": "徳島県鳴門市大麻町桧字東山田"
    },
    "どなり": {
      "name": "どなり",
      "lat": "34.08.51",
      "lng": "134.21.19",
      "park": "33",
      "address": "徳島県阿波市宮川内字平間28-2"
    },
    "にしいや": {
      "name": "にしいや",
      "lat": "33.53.09",
      "lng": "133.48.50",
      "park": "89",
      "address": "徳島県三好市西祖谷山村尾井ノ内348-2"
    },
    "ひなの里かつうら": {
      "name": "ひなの里かつうら",
      "lat": "33.55.44",
      "lng": "134.31.32",
      "park": "31",
      "address": "徳島県勝浦郡勝浦町生名月ノ瀬"
    },
    "日和佐": {
      "name": "日和佐",
      "lat": "33.43.37",
      "lng": "134.31.59",
      "park": "67",
      "address": "徳島県海部郡美波町奥河内寺前493-6"
    },
    "三野": {
      "name": "三野",
      "lat": "34.02.50",
      "lng": "133.56.06",
      "park": "20",
      "address": "徳島県三好市三野町太刀野不動1909-1"
    },
    "もみじ川温泉": {
      "name": "もみじ川温泉",
      "lat": "33.47.39",
      "lng": "134.26.56",
      "park": "18",
      "address": "徳島県那賀郡那賀町大久保字西納野4-7"
    },
    "わじき": {
      "name": "わじき",
      "lat": "33.51.56",
      "lng": "134.33.26",
      "park": "29",
      "address": "徳島県那賀郡那賀町中山字関ヶ原34-56"
    },
    "鷲の里": {
      "name": "鷲の里",
      "lat": "33.51.35",
      "lng": "134.30.18",
      "park": "160",
      "address": "徳島県那賀郡那賀町和食字田野89"
    }
  },
  "香川県": {
    "大坂城残石記念公園": {
      "name": "大坂城残石記念公園",
      "lat": "34.31.50",
      "lng": "134.14.41",
      "park": "17",
      "address": "香川県小豆郡土庄町小海甲900-17"
    },
    "源平の里むれ": {
      "name": "源平の里むれ",
      "lat": "34.19.50",
      "lng": "134.09.37",
      "park": "62",
      "address": "香川県高松市牟礼町原631-5"
    },
    "恋人の聖地　うたづ臨海公園": {
      "name": "恋人の聖地　うたづ臨海公園",
      "lat": "34.18.36",
      "lng": "133.48.38",
      "park": "22",
      "address": "香川県綾歌郡宇多津町浜一番丁4"
    },
    "香南楽湯": {
      "name": "香南楽湯",
      "lat": "34.14.10",
      "lng": "134.00.36",
      "park": "34",
      "address": "香川県高松市香南町横井997-2"
    },
    "ことなみ": {
      "name": "ことなみ",
      "lat": "34.05.31",
      "lng": "134.00.37",
      "park": "136",
      "address": "香川県仲多度郡まんのう町川東2355-1"
    },
    "ことひき": {
      "name": "ことひき",
      "lat": "34.07.38",
      "lng": "133.38.46",
      "park": "26",
      "address": "香川県観音寺市有明町3-37"
    },
    "しおのえ": {
      "name": "しおのえ",
      "lat": "34.10.01",
      "lng": "134.05.05",
      "park": "27",
      "address": "香川県高松市塩江町安原上東字塩江390-21"
    },
    "小豆島オリーブ公園": {
      "name": "小豆島オリーブ公園",
      "lat": "34.28.11",
      "lng": "134.16.35",
      "park": "150",
      "address": "香川県小豆郡小豆島町西村甲1941-1"
    },
    "小豆島ふるさと村": {
      "name": "小豆島ふるさと村",
      "lat": "34.28.04",
      "lng": "134.14.20",
      "park": "40",
      "address": "香川県小豆郡小豆島町室生2084-1"
    },
    "瀬戸大橋記念公園": {
      "name": "瀬戸大橋記念公園",
      "lat": "34.20.58",
      "lng": "133.49.43",
      "park": "180",
      "address": "香川県坂出市番の州緑町6-13"
    },
    "空の夢もみの木パーク": {
      "name": "空の夢もみの木パーク",
      "lat": "34.09.06",
      "lng": "133.49.27",
      "park": "18",
      "address": "香川県仲多度郡まんのう町追上424-1"
    },
    "たからだの里さいた": {
      "name": "たからだの里さいた",
      "lat": "34.06.24",
      "lng": "133.48.02",
      "park": "107",
      "address": "香川県三豊市財田町財田上180-6"
    },
    "滝宮": {
      "name": "滝宮",
      "lat": "34.14.47",
      "lng": "133.55.12",
      "park": "61",
      "address": "香川県綾歌郡綾川町滝宮1578"
    },
    "津田の松原": {
      "name": "津田の松原",
      "lat": "34.16.55",
      "lng": "134.15.21",
      "park": "250",
      "address": "香川県さぬき市津田町津田103-3"
    },
    "とよはま": {
      "name": "とよはま",
      "lat": "34.02.22",
      "lng": "133.36.15",
      "park": "66",
      "address": "香川県観音寺市豊浜町箕浦大西甲2506"
    },
    "ながお": {
      "name": "ながお",
      "lat": "34.13.05",
      "lng": "134.10.40",
      "park": "68",
      "address": "香川県さぬき市前山榿940-12"
    },
    "ふれあいパークみの": {
      "name": "ふれあいパークみの",
      "lat": "34.13.23",
      "lng": "133.43.32",
      "park": "306",
      "address": "香川県三豊市三野町大見乙74"
    },
    "みろく": {
      "name": "みろく",
      "lat": "34.15.18",
      "lng": "134.14.42",
      "park": "60",
      "address": "香川県さぬき市大川町富田中3298-1"
    }
  },
  "愛媛県": {
    "伊方きらら館": {
      "name": "伊方きらら館",
      "lat": "33.28.39",
      "lng": "132.18.37",
      "park": "54",
      "address": "愛媛県西宇和郡伊方町九町コチワキ"
    },
    "今治市多々羅しまなみ公園": {
      "name": "今治市多々羅しまなみ公園",
      "lat": "34.15.06",
      "lng": "133.03.25",
      "park": "116",
      "address": "愛媛県今治市上浦町井口9180-2"
    },
    "今治湯ノ浦温泉": {
      "name": "今治湯ノ浦温泉",
      "lat": "33.59.22",
      "lng": "133.03.04",
      "park": "38",
      "address": "愛媛県今治市長沢甲252-2"
    },
    "内子フレッシュパークからり": {
      "name": "内子フレッシュパークからり",
      "lat": "33.33.05",
      "lng": "132.39.39",
      "park": "55",
      "address": "愛媛県喜多郡内子町内子甲1349-1"
    },
    "うわじま　きさいや広場": {
      "name": "うわじま　きさいや広場",
      "lat": "33.13.08",
      "lng": "132.33.39",
      "park": "152",
      "address": "愛媛県宇和島市弁天町1-318-16"
    },
    "小田の郷　せせらぎ": {
      "name": "小田の郷　せせらぎ",
      "lat": "33.33.55",
      "lng": "132.48.12",
      "park": "43",
      "address": "愛媛県喜多郡内子町寺村251-1"
    },
    "風早の郷　風和里": {
      "name": "風早の郷　風和里",
      "lat": "33.59.36",
      "lng": "132.46.29",
      "park": "82",
      "address": "愛媛県松山市大浦119"
    },
    "きなはい屋しろかわ": {
      "name": "きなはい屋しろかわ",
      "lat": "33.22.35",
      "lng": "132.45.07",
      "park": "22",
      "address": "愛媛県西予市城川町下相1008-1"
    },
    "霧の森": {
      "name": "霧の森",
      "lat": "33.55.15",
      "lng": "133.38.37",
      "park": "89",
      "address": "愛媛県四国中央市新宮町馬立4491-1"
    },
    "小松オアシス": {
      "name": "小松オアシス",
      "lat": "33.52.49",
      "lng": "133.06.37",
      "park": "68",
      "address": "愛媛県西条市小松町新屋敷乙22-29"
    },
    "しまなみの駅御島": {
      "name": "しまなみの駅御島",
      "lat": "34.14.44",
      "lng": "133.00.28",
      "park": "29",
      "address": "愛媛県今治市大三島町宮浦3260"
    },
    "清流の里ひじかわ": {
      "name": "清流の里ひじかわ",
      "lat": "33.27.27",
      "lng": "132.40.46",
      "park": "107",
      "address": "愛媛県大洲市肱川町宇和川3030"
    },
    "瀬戸町農業公園": {
      "name": "瀬戸町農業公園",
      "lat": "33.26.39",
      "lng": "132.15.37",
      "park": "99",
      "address": "愛媛県西宇和郡伊方町塩成乙293"
    },
    "津島やすらぎの里": {
      "name": "津島やすらぎの里",
      "lat": "33.08.09",
      "lng": "132.31.25",
      "park": "69",
      "address": "愛媛県宇和島市津島町高田甲830-1"
    },
    "天空の郷さんさん": {
      "name": "天空の郷さんさん",
      "lat": "33.39.28",
      "lng": "132.54.04",
      "park": "58",
      "address": "愛媛県上浮穴郡久万高原町入野1855-6"
    },
    "どんぶり館": {
      "name": "どんぶり館",
      "lat": "33.21.06",
      "lng": "132.31.47",
      "park": "47",
      "address": "愛媛県西予市宇和町稲生118"
    },
    "虹の森公園まつの": {
      "name": "虹の森公園まつの",
      "lat": "33.13.34",
      "lng": "132.42.44",
      "park": "132",
      "address": "愛媛県北宇和郡松野町延野々1510-1"
    },
    "伯方Ｓ・Ｃパーク": {
      "name": "伯方Ｓ・Ｃパーク",
      "lat": "34.11.58",
      "lng": "133.04.41",
      "park": "321",
      "address": "愛媛県今治市伯方町叶浦甲1668-1"
    },
    "日吉夢産地": {
      "name": "日吉夢産地",
      "lat": "33.19.37",
      "lng": "132.48.03",
      "park": "55",
      "address": "愛媛県北宇和郡鬼北町下鍵山54"
    },
    "ひろた": {
      "name": "ひろた",
      "lat": "33.38.13",
      "lng": "132.48.08",
      "park": "73",
      "address": "愛媛県伊予郡砥部町総津162-1"
    },
    "広見森の三角ぼうし": {
      "name": "広見森の三角ぼうし",
      "lat": "33.15.02",
      "lng": "132.41.22",
      "park": "19",
      "address": "愛媛県北宇和郡鬼北町大字永野市144-1"
    },
    "ふたみ": {
      "name": "ふたみ",
      "lat": "33.40.54",
      "lng": "132.38.12",
      "park": "103",
      "address": "愛媛県伊予市双海町高岸甲2326"
    },
    "マイントピア別子": {
      "name": "マイントピア別子",
      "lat": "33.53.54",
      "lng": "133.18.43",
      "park": "396",
      "address": "愛媛県新居浜市立川町707-3"
    },
    "みかわ": {
      "name": "みかわ",
      "lat": "33.36.39",
      "lng": "132.58.21",
      "park": "23",
      "address": "愛媛県上浮穴郡久万高原町上黒岩2840-1"
    },
    "みしょうＭＩＣ": {
      "name": "みしょうＭＩＣ",
      "lat": "32.57.19",
      "lng": "132.33.50",
      "park": "24",
      "address": "愛媛県南宇和郡愛南町御荘平城4296-1"
    },
    "みま": {
      "name": "みま",
      "lat": "33.16.59",
      "lng": "132.35.55",
      "park": "120",
      "address": "愛媛県宇和島市三間町務田180-1"
    },
    "八幡浜みなっと": {
      "name": "八幡浜みなっと",
      "lat": "33.27.17",
      "lng": "132.25.15",
      "park": "195",
      "address": "愛媛県八幡浜市沖新田1581-23"
    },
    "よしうみいきいき館": {
      "name": "よしうみいきいき館",
      "lat": "34.07.27",
      "lng": "133.01.29",
      "park": "112",
      "address": "愛媛県今治市吉海町名4520-2"
    }
  },
  "高知県": {
    "あぐり窪川": {
      "name": "あぐり窪川",
      "lat": "33.13.40",
      "lng": "133.09.06",
      "park": "65",
      "address": "高知県高岡郡四万十町平串284-1"
    },
    "大杉": {
      "name": "大杉",
      "lat": "33.44.51",
      "lng": "133.39.57",
      "park": "47",
      "address": "高知県長岡郡大豊町杉743-1"
    },
    "大月": {
      "name": "大月",
      "lat": "32.49.31",
      "lng": "132.42.43",
      "park": "85",
      "address": "高知県幡多郡大月町弘見2610"
    },
    "大山": {
      "name": "大山",
      "lat": "33.28.00",
      "lng": "133.56.48",
      "park": "21",
      "address": "高知県安芸市下山黒ハエ1400"
    },
    "かわうその里すさき": {
      "name": "かわうその里すさき",
      "lat": "33.23.03",
      "lng": "133.16.38",
      "park": "53",
      "address": "高知県須崎市下分甲263-3"
    },
    "キラメッセ室戸": {
      "name": "キラメッセ室戸",
      "lat": "33.18.11",
      "lng": "134.06.46",
      "park": "60",
      "address": "高知県室戸市吉良川町丙890-11"
    },
    "木の香": {
      "name": "木の香",
      "lat": "33.46.35",
      "lng": "133.18.37",
      "park": "24",
      "address": "高知県吾川郡いの町桑瀬225-24"
    },
    "四万十大正": {
      "name": "四万十大正",
      "lat": "33.10.45",
      "lng": "132.58.25",
      "park": "100",
      "address": "高知県高岡郡四万十町大正17-1"
    },
    "四万十とおわ": {
      "name": "四万十とおわ",
      "lat": "33.13.14",
      "lng": "132.50.17",
      "park": "30",
      "address": "高知県高岡郡四万十町十和川口62-9"
    },
    "すくも": {
      "name": "すくも",
      "lat": "32.54.46",
      "lng": "132.42.54",
      "park": "55",
      "address": "高知県宿毛市坂ノ下1023-44"
    },
    "田野駅屋": {
      "name": "田野駅屋",
      "lat": "33.25.36",
      "lng": "134.00.38",
      "park": "35",
      "address": "高知県安芸郡田野町上島田1431-1"
    },
    "土佐さめうら": {
      "name": "土佐さめうら",
      "lat": "33.44.21",
      "lng": "133.32.49",
      "park": "35",
      "address": "高知県土佐郡土佐町田井448-2"
    },
    "土佐和紙工芸村": {
      "name": "土佐和紙工芸村",
      "lat": "33.34.13",
      "lng": "133.22.08",
      "park": "80",
      "address": "高知県吾川郡いの町鹿敷1226"
    },
    "なぶら土佐佐賀": {
      "name": "なぶら土佐佐賀",
      "lat": "33.05.01",
      "lng": "133.06.15",
      "park": "67",
      "address": "高知県幡多郡黒潮町佐賀1350"
    },
    "南国風良里": {
      "name": "南国風良里",
      "lat": "33.36.28",
      "lng": "133.38.41",
      "park": "50",
      "address": "高知県南国市左右山102-1"
    },
    "ビオスおおがた": {
      "name": "ビオスおおがた",
      "lat": "33.01.54",
      "lng": "133.01.46",
      "park": "28",
      "address": "高知県幡多郡黒潮町浮鞭"
    },
    "美良布": {
      "name": "美良布",
      "lat": "33.38.41",
      "lng": "133.47.07",
      "park": "85",
      "address": "高知県香美市香北町美良布1211"
    },
    "布施ヶ坂": {
      "name": "布施ヶ坂",
      "lat": "33.25.24",
      "lng": "133.06.07",
      "park": "40",
      "address": "高知県高岡郡津野町船戸654-1"
    },
    "６３３美の里": {
      "name": "６３３美の里",
      "lat": "33.38.25",
      "lng": "133.19.51",
      "park": "32",
      "address": "高知県吾川郡いの町上八川甲1160-2"
    },
    "めじかの里土佐清水": {
      "name": "めじかの里土佐清水",
      "lat": "32.47.24",
      "lng": "132.53.08",
      "park": "24",
      "address": "高知県土佐清水市三崎字西シリソメ671-1"
    },
    "やす": {
      "name": "やす",
      "lat": "33.31.51",
      "lng": "133.45.23",
      "park": "31",
      "address": "高知県香南市夜須町千切537-90"
    },
    "ゆすはら": {
      "name": "ゆすはら",
      "lat": "33.23.06",
      "lng": "132.56.51",
      "park": "350",
      "address": "高知県高岡郡檮原町太郎川3799"
    },
    "よって西土佐": {
      "name": "よって西土佐",
      "lat": "33.10.12",
      "lng": "132.47.30",
      "park": "42",
      "address": "高知県四万十市西土佐江川﨑2410-3"
    }
  },
  "福岡県": {
    "いとだ": {
      "name": "いとだ",
      "lat": "33.38.20",
      "lng": "130.46.01",
      "park": "110",
      "address": "福岡県田川郡糸田町162-4"
    },
    "うきは": {
      "name": "うきは",
      "lat": "33.19.51",
      "lng": "130.49.14",
      "park": "109",
      "address": "福岡県うきは市浮羽町山北729-2"
    },
    "うすい": {
      "name": "うすい",
      "lat": "33.33.38",
      "lng": "130.42.56",
      "park": "175",
      "address": "福岡県嘉麻市上臼井328-1"
    },
    "おおき": {
      "name": "おおき",
      "lat": "33.12.53",
      "lng": "130.26.25",
      "park": "104",
      "address": "福岡県三潴郡大木町横溝1331-1"
    },
    "おおとう桜街道": {
      "name": "おおとう桜街道",
      "lat": "33.37.20",
      "lng": "130.50.53",
      "park": "192",
      "address": "福岡県田川郡大任町今任原1339"
    },
    "おおむた": {
      "name": "おおむた",
      "lat": "33.04.11",
      "lng": "130.32.04",
      "park": "60",
      "address": "福岡県大牟田市四箇新町2-1"
    },
    "香春": {
      "name": "香春",
      "lat": "33.40.24",
      "lng": "130.51.44",
      "park": "103",
      "address": "福岡県田川郡香春町鏡山1870-1"
    },
    "歓遊舎ひこさん": {
      "name": "歓遊舎ひこさん",
      "lat": "33.32.44",
      "lng": "130.51.44",
      "park": "36",
      "address": "福岡県田川郡添田町野田1113-1"
    },
    "くるめ": {
      "name": "くるめ",
      "lat": "33.18.57",
      "lng": "130.35.48",
      "park": "115",
      "address": "福岡県久留米市善導寺町木塚221-33"
    },
    "小石原": {
      "name": "小石原",
      "lat": "33.27.43",
      "lng": "130.49.41",
      "park": "41",
      "address": "福岡県朝倉郡東峰村小石原941-3"
    },
    "しんよしとみ": {
      "name": "しんよしとみ",
      "lat": "33.35.08",
      "lng": "131.09.25",
      "park": "81",
      "address": "福岡県築上郡上毛町大ノ瀬300-1"
    },
    "たちばな": {
      "name": "たちばな",
      "lat": "33.11.03",
      "lng": "130.36.46",
      "park": "70",
      "address": "福岡県八女市立花町下辺春315-1"
    },
    "原鶴": {
      "name": "原鶴",
      "lat": "33.21.02",
      "lng": "130.47.15",
      "park": "37",
      "address": "福岡県朝倉市杷木久喜宮1663-1"
    },
    "豊前おこしかけ": {
      "name": "豊前おこしかけ",
      "lat": "33.36.39",
      "lng": "131.06.12",
      "park": "86",
      "address": "福岡県豊前市四郎丸1039-1"
    },
    "みやま": {
      "name": "みやま",
      "lat": "33.08.38",
      "lng": "130.29.11",
      "park": "163",
      "address": "福岡県みやま市瀬高町大江2328"
    },
    "むなかた": {
      "name": "むなかた",
      "lat": "33.50.43",
      "lng": "130.30.21",
      "park": "193",
      "address": "福岡県宗像市江口1172"
    }
  },
  "佐賀県": {
    "伊万里": {
      "name": "伊万里",
      "lat": "33.18.37",
      "lng": "129.55.52",
      "park": "65",
      "address": "佐賀県伊万里市南波多町井手野2754-9"
    },
    "鹿島": {
      "name": "鹿島",
      "lat": "33.04.18",
      "lng": "130.08.53",
      "park": "260",
      "address": "佐賀県鹿島市音成甲4427-6"
    },
    "厳木": {
      "name": "厳木",
      "lat": "33.18.28",
      "lng": "130.04.27",
      "park": "62",
      "address": "佐賀県唐津市厳木町牧瀬692-1"
    },
    "太良": {
      "name": "太良",
      "lat": "33.02.38",
      "lng": "130.10.18",
      "park": "66",
      "address": "佐賀県藤津郡太良町伊福甲3488-2"
    },
    "桃山天下市": {
      "name": "桃山天下市",
      "lat": "33.31.32",
      "lng": "129.52.32",
      "park": "108",
      "address": "佐賀県唐津市鎮西町名護屋1859"
    },
    "山内": {
      "name": "山内",
      "lat": "33.11.18",
      "lng": "129.57.30",
      "park": "33",
      "address": "佐賀県武雄市山内町三間坂甲14697-2"
    },
    "大和": {
      "name": "大和",
      "lat": "33.20.08",
      "lng": "130.15.37",
      "park": "56",
      "address": "佐賀県佐賀市大和町梅野805"
    },
    "吉野ヶ里": {
      "name": "吉野ヶ里",
      "lat": "33.22.37",
      "lng": "130.23.58",
      "park": "65",
      "address": "佐賀県神埼郡吉野ヶ里町松隈1710-11"
    }
  },
  "長崎県": {
    "生月大橋": {
      "name": "生月大橋",
      "lat": "33.21.07",
      "lng": "129.26.09",
      "park": "49",
      "address": "長崎県平戸市生月町南免4375-1"
    },
    "遣唐使ふるさと館": {
      "name": "遣唐使ふるさと館",
      "lat": "32.44.06",
      "lng": "128.41.33",
      "park": "63",
      "address": "長崎県五島市三井楽町濱ノ畔3150-1"
    },
    "昆虫の里たびら": {
      "name": "昆虫の里たびら",
      "lat": "33.18.52",
      "lng": "129.36.19",
      "park": "40",
      "address": "長崎県平戸市田平町深月免521"
    },
    "さいかい": {
      "name": "さいかい",
      "lat": "33.02.23",
      "lng": "129.41.53",
      "park": "32",
      "address": "長崎県西海市西海町木場郷488-1"
    },
    "させぼっくす　９９": {
      "name": "させぼっくす　９９",
      "lat": "33.11.54",
      "lng": "129.40.26",
      "park": "92",
      "address": "長崎県佐世保市愛宕町11"
    },
    "彼杵の荘": {
      "name": "彼杵の荘",
      "lat": "33.01.57",
      "lng": "129.55.20",
      "park": "40",
      "address": "長崎県東彼杵郡東彼杵町彼杵宿郷747-2"
    },
    "鷹ら島": {
      "name": "鷹ら島",
      "lat": "33.25.50",
      "lng": "129.47.05",
      "park": "47",
      "address": "長崎県松浦市鷹島町神崎免1636"
    },
    "長崎街道鈴田峠": {
      "name": "長崎街道鈴田峠",
      "lat": "32.52.55",
      "lng": "130.00.36",
      "park": "27",
      "address": "長崎県大村市中里町452-22"
    },
    "松浦海のふるさと館": {
      "name": "松浦海のふるさと館",
      "lat": "33.20.43",
      "lng": "129.42.14",
      "park": "68",
      "address": "長崎県松浦市志佐町庄野免226-30"
    },
    "みずなし本陣ふかえ": {
      "name": "みずなし本陣ふかえ",
      "lat": "32.44.10",
      "lng": "130.22.11",
      "park": "168",
      "address": "長崎県南島原市深江町丁6077"
    },
    "夕陽が丘そとめ": {
      "name": "夕陽が丘そとめ",
      "lat": "32.49.57",
      "lng": "129.42.21",
      "park": "76",
      "address": "長崎県長崎市東出津町149-2"
    }
  },
  "熊本県": {
    "阿蘇": {
      "name": "阿蘇",
      "lat": "32.56.01",
      "lng": "131.05.00",
      "park": "82",
      "address": "熊本県阿蘇市黒川1440-1"
    },
    "あそ望の郷くぎの": {
      "name": "あそ望の郷くぎの",
      "lat": "32.48.54",
      "lng": "131.02.37",
      "park": "263",
      "address": "熊本県阿蘇郡南阿蘇村久石2807"
    },
    "有明": {
      "name": "有明",
      "lat": "32.30.08",
      "lng": "130.18.29",
      "park": "88",
      "address": "熊本県天草市有明町上津浦1955"
    },
    "うき": {
      "name": "うき",
      "lat": "32.38.52",
      "lng": "130.42.00",
      "park": "158",
      "address": "熊本県宇城市松橋町久具757-3"
    },
    "うしぶか海彩館": {
      "name": "うしぶか海彩館",
      "lat": "32.11.26",
      "lng": "130.01.46",
      "park": "58",
      "address": "熊本県天草市牛深町2286-116"
    },
    "宇土マリーナ": {
      "name": "宇土マリーナ",
      "lat": "32.39.32",
      "lng": "130.31.30",
      "park": "127",
      "address": "熊本県宇土市下網田町3084-1"
    },
    "大津": {
      "name": "大津",
      "lat": "32.52.39",
      "lng": "130.53.37",
      "park": "111",
      "address": "熊本県菊池郡大津町引水字三吉原758"
    },
    "大野温泉": {
      "name": "大野温泉",
      "lat": "32.17.11",
      "lng": "130.35.04",
      "park": "67",
      "address": "熊本県葦北郡芦北町天月1000"
    },
    "小国": {
      "name": "小国",
      "lat": "33.07.11",
      "lng": "131.04.01",
      "park": "33",
      "address": "熊本県阿蘇郡小国町宮原1754-17"
    },
    "鹿北": {
      "name": "鹿北",
      "lat": "33.06.37",
      "lng": "130.40.16",
      "park": "108",
      "address": "熊本県山鹿市鹿北町岩野4186-130"
    },
    "上天草さんぱーる": {
      "name": "上天草さんぱーる",
      "lat": "32.34.26",
      "lng": "130.25.21",
      "park": "142",
      "address": "熊本県上天草市大矢野町中11582-24"
    },
    "きくすい": {
      "name": "きくすい",
      "lat": "32.58.12",
      "lng": "130.36.16",
      "park": "122",
      "address": "熊本県玉名郡和水町江田455"
    },
    "旭志": {
      "name": "旭志",
      "lat": "32.55.40",
      "lng": "130.49.57",
      "park": "44",
      "address": "熊本県菊池市旭志川辺1886"
    },
    "子守唄の里　五木": {
      "name": "子守唄の里　五木",
      "lat": "32.23.43",
      "lng": "130.49.45",
      "park": "81",
      "address": "熊本県球磨郡五木村甲字下手2672-57"
    },
    "坂本": {
      "name": "坂本",
      "lat": "32.25.24",
      "lng": "130.38.36",
      "park": "86",
      "address": "熊本県八代市坂本町荒瀬1239-1"
    },
    "泗水": {
      "name": "泗水",
      "lat": "32.55.18",
      "lng": "130.46.26",
      "park": "136",
      "address": "熊本県菊池市泗水町豊水3393"
    },
    "七城メロンドーム": {
      "name": "七城メロンドーム",
      "lat": "32.58.37",
      "lng": "130.46.21",
      "park": "212",
      "address": "熊本県菊池市七城町岡田306"
    },
    "不知火": {
      "name": "不知火",
      "lat": "32.37.49",
      "lng": "130.37.53",
      "park": "153",
      "address": "熊本県宇城市不知火町永尾1910-1"
    },
    "清和文楽邑": {
      "name": "清和文楽邑",
      "lat": "32.41.14",
      "lng": "131.05.37",
      "park": "68",
      "address": "熊本県上益城郡山都町大平152"
    },
    "そよ風パーク": {
      "name": "そよ風パーク",
      "lat": "32.43.27",
      "lng": "131.10.10",
      "park": "235",
      "address": "熊本県上益城郡山都町今297"
    },
    "たのうら": {
      "name": "たのうら",
      "lat": "32.21.40",
      "lng": "130.30.54",
      "park": "109",
      "address": "熊本県葦北郡芦北町田浦657"
    },
    "通潤橋": {
      "name": "通潤橋",
      "lat": "32.40.41",
      "lng": "130.59.38",
      "park": "158",
      "address": "熊本県上益城郡山都町下市184-1"
    },
    "波野": {
      "name": "波野",
      "lat": "32.57.23",
      "lng": "131.12.01",
      "park": "309",
      "address": "熊本県阿蘇市波野小地野1602"
    },
    "錦": {
      "name": "錦",
      "lat": "32.12.09",
      "lng": "130.50.51",
      "park": "93",
      "address": "熊本県球磨郡錦町一武1544-1"
    },
    "美里「佐俣の湯」": {
      "name": "美里「佐俣の湯」",
      "lat": "32.37.13",
      "lng": "130.49.31",
      "park": "95",
      "address": "熊本県下益城郡美里町佐俣705"
    },
    "水辺プラザかもと": {
      "name": "水辺プラザかもと",
      "lat": "32.59.01",
      "lng": "130.45.29",
      "park": "253",
      "address": "熊本県山鹿市鹿本町梶屋1257"
    },
    "みなまた": {
      "name": "みなまた",
      "lat": "32.11.45",
      "lng": "130.23.02",
      "park": "118",
      "address": "熊本県水俣市月浦54-162"
    },
    "竜北": {
      "name": "竜北",
      "lat": "32.34.24",
      "lng": "130.41.49",
      "park": "85",
      "address": "熊本県八代郡氷川町大野875-3"
    }
  },
  "大分県": {
    "あさじ": {
      "name": "あさじ",
      "lat": "32.59.57",
      "lng": "131.27.02",
      "park": "46",
      "address": "大分県豊後大野市朝地町板井迫1018-1"
    },
    "いんない": {
      "name": "いんない",
      "lat": "33.25.13",
      "lng": "131.19.22",
      "park": "39",
      "address": "大分県宇佐市院内町副1381-2"
    },
    "宇目": {
      "name": "宇目",
      "lat": "32.48.01",
      "lng": "131.36.46",
      "park": "45",
      "address": "大分県佐伯市宇目南田原2513-5"
    },
    "おおの": {
      "name": "おおの",
      "lat": "33.01.58",
      "lng": "131.30.19",
      "park": "80",
      "address": "大分県豊後大野市大野町田中43-10"
    },
    "かまえ": {
      "name": "かまえ",
      "lat": "32.47.54",
      "lng": "131.55.36",
      "park": "103",
      "address": "大分県佐伯市蒲江蒲江浦5104-1"
    },
    "きよかわ": {
      "name": "きよかわ",
      "lat": "32.58.06",
      "lng": "131.31.14",
      "park": "84",
      "address": "大分県豊後大野市清川町砂田1574-1"
    },
    "くにさき": {
      "name": "くにさき",
      "lat": "33.32.31",
      "lng": "131.44.32",
      "park": "47",
      "address": "大分県国東市国東町小原2662-1"
    },
    "くにみ": {
      "name": "くにみ",
      "lat": "33.40.38",
      "lng": "131.36.29",
      "park": "38",
      "address": "大分県国東市国見町伊美4256"
    },
    "佐賀関": {
      "name": "佐賀関",
      "lat": "33.14.38",
      "lng": "131.49.51",
      "park": "38",
      "address": "大分県大分市大平989-1"
    },
    "すごう": {
      "name": "すごう",
      "lat": "32.57.12",
      "lng": "131.17.47",
      "park": "107",
      "address": "大分県竹田市菅生塚原989-1"
    },
    "せせらぎ郷かみつえ": {
      "name": "せせらぎ郷かみつえ",
      "lat": "33.06.32",
      "lng": "130.57.50",
      "park": "49",
      "address": "大分県日田市上津江町川原3848-1"
    },
    "鯛生金山": {
      "name": "鯛生金山",
      "lat": "33.07.33",
      "lng": "130.53.06",
      "park": "126",
      "address": "大分県日田市中津江村合瀬3750"
    },
    "竹田": {
      "name": "竹田",
      "lat": "32.58.56",
      "lng": "131.20.35",
      "park": "73",
      "address": "大分県竹田市米納663-1"
    },
    "童話の里　くす": {
      "name": "童話の里　くす",
      "lat": "33.17.09",
      "lng": "131.09.34",
      "park": "127",
      "address": "大分県玖珠郡玖珠町帆足2121"
    },
    "なかつ": {
      "name": "なかつ",
      "lat": "33.32.54",
      "lng": "131.12.58",
      "park": "119",
      "address": "大分県中津市加来814"
    },
    "ながゆ温泉": {
      "name": "ながゆ温泉",
      "lat": "33.04.04",
      "lng": "131.23.11",
      "park": "70",
      "address": "大分県竹田市直入町長湯8043-1"
    },
    "原尻の滝": {
      "name": "原尻の滝",
      "lat": "32.57.44",
      "lng": "131.27.17",
      "park": "78",
      "address": "大分県豊後大野市緒方町原尻936-1"
    },
    "みえ": {
      "name": "みえ",
      "lat": "33.01.31",
      "lng": "131.37.26",
      "park": "101",
      "address": "大分県豊後大野市三重町宮野2791-1"
    },
    "水辺の郷おおやま": {
      "name": "水辺の郷おおやま",
      "lat": "33.14.40",
      "lng": "130.58.28",
      "park": "110",
      "address": "大分県日田市大山町西大山4106"
    },
    "耶馬トピア": {
      "name": "耶馬トピア",
      "lat": "33.29.11",
      "lng": "131.10.37",
      "park": "68",
      "address": "大分県中津市本耶馬溪町曽木2193-1"
    },
    "やまくに": {
      "name": "やまくに",
      "lat": "33.24.11",
      "lng": "131.03.50",
      "park": "60",
      "address": "大分県中津市山国町中摩358-4"
    },
    "やよい": {
      "name": "やよい",
      "lat": "32.57.40",
      "lng": "131.50.28",
      "park": "91",
      "address": "大分県佐伯市弥生上小倉898-1"
    },
    "ゆふいん": {
      "name": "ゆふいん",
      "lat": "33.15.26",
      "lng": "131.19.46",
      "park": "73",
      "address": "大分県由布市湯布院町川北899-76"
    }
  },
  "宮崎県": {
    "えびの": {
      "name": "えびの",
      "lat": "32.02.47",
      "lng": "130.48.29",
      "park": "94",
      "address": "宮崎県えびの市永山1006-1"
    },
    "北浦": {
      "name": "北浦",
      "lat": "32.40.53",
      "lng": "131.48.11",
      "park": "25",
      "address": "宮崎県延岡市北浦町古江3337-1"
    },
    "北方よっちみろ屋": {
      "name": "北方よっちみろ屋",
      "lat": "32.35.32",
      "lng": "131.29.39",
      "park": "44",
      "address": "宮崎県延岡市北方町早日渡巳175-1"
    },
    "北川はゆま": {
      "name": "北川はゆま",
      "lat": "32.39.48",
      "lng": "131.42.24",
      "park": "37",
      "address": "宮崎県東臼杵郡北川町長井上迫5565地先"
    },
    "酒谷": {
      "name": "酒谷",
      "lat": "31.38.17",
      "lng": "131.16.06",
      "park": "68",
      "address": "宮崎県日南市酒谷甲1840-4"
    },
    "青雲橋": {
      "name": "青雲橋",
      "lat": "32.39.26",
      "lng": "131.23.27",
      "park": "53",
      "address": "宮崎県西臼杵郡日之影町七折8705-12"
    },
    "高岡": {
      "name": "高岡",
      "lat": "31.56.33",
      "lng": "131.20.35",
      "park": "37",
      "address": "宮崎県宮崎市高岡町花見304-5"
    },
    "高千穂": {
      "name": "高千穂",
      "lat": "32.42.18",
      "lng": "131.18.10",
      "park": "40",
      "address": "宮崎県西臼杵郡高千穂町三田井1296-5"
    },
    "田野": {
      "name": "田野",
      "lat": "31.47.35",
      "lng": "131.18.37",
      "park": "34",
      "address": "宮崎県宮崎市田野町甲7885-125"
    },
    "つの": {
      "name": "つの",
      "lat": "32.15.25",
      "lng": "131.33.37",
      "park": "147",
      "address": "宮崎県児湯郡都農町川北5129"
    },
    "とうごう": {
      "name": "とうごう",
      "lat": "32.23.17",
      "lng": "131.30.57",
      "park": "134",
      "address": "宮崎県日向市東郷町山陰辛244-1"
    },
    "なんごう": {
      "name": "なんごう",
      "lat": "31.29.59",
      "lng": "131.22.54",
      "park": "22",
      "address": "宮崎県南那珂郡南郷町南町8-1"
    },
    "日向": {
      "name": "日向",
      "lat": "32.20.24",
      "lng": "131.37.35",
      "park": "79",
      "address": "宮崎県日向市幸脇241-7"
    },
    "フェニックス": {
      "name": "フェニックス",
      "lat": "31.45.56",
      "lng": "131.28.51",
      "park": "109",
      "address": "宮崎県宮崎市内海字三池381-1"
    },
    "都城": {
      "name": "都城",
      "lat": "31.45.56",
      "lng": "131.05.48",
      "park": "83",
      "address": "宮崎県都城市都北町5225-1"
    },
    "山之口": {
      "name": "山之口",
      "lat": "31.47.27",
      "lng": "131.12.18",
      "park": "26",
      "address": "宮崎県都城市山之口町山之口2304-6"
    },
    "ゆ〜ぱるのじり": {
      "name": "ゆ〜ぱるのじり",
      "lat": "31.57.39",
      "lng": "131.05.04",
      "park": "81",
      "address": "宮崎県小林市野尻町三ケ野山4347-1"
    }
  },
  "鹿児島県": {
    "阿久根": {
      "name": "阿久根",
      "lat": "31.56.33",
      "lng": "130.13.08",
      "park": "65",
      "address": "鹿児島県阿久根市大川4816-6"
    },
    "奄美大島住用": {
      "name": "奄美大島住用",
      "lat": "28.15.21",
      "lng": "129.24.39",
      "park": "102",
      "address": "鹿児島県奄美市住用町石原478"
    },
    "いぶすき": {
      "name": "いぶすき",
      "lat": "31.17.55",
      "lng": "130.35.32",
      "park": "67",
      "address": "鹿児島県指宿市小牧52-4"
    },
    "おおすみ弥五郎伝説の里": {
      "name": "おおすみ弥五郎伝説の里",
      "lat": "31.35.13",
      "lng": "130.59.34",
      "park": "341",
      "address": "鹿児島県曽於市大隅町岩川5718-1"
    },
    "川辺やすらぎの郷": {
      "name": "川辺やすらぎの郷",
      "lat": "31.24.33",
      "lng": "130.26.07",
      "park": "61",
      "address": "鹿児島県川辺郡川辺町清水6927-1"
    },
    "喜入": {
      "name": "喜入",
      "lat": "31.22.31",
      "lng": "130.32.51",
      "park": "320",
      "address": "鹿児島県鹿児島市喜入町6094-1"
    },
    "霧島": {
      "name": "霧島",
      "lat": "31.51.35",
      "lng": "130.51.13",
      "park": "100",
      "address": "鹿児島県霧島市霧島田口2583-8"
    },
    "錦江にしきの里": {
      "name": "錦江にしきの里",
      "lat": "31.16.16",
      "lng": "130.47.42",
      "park": "30",
      "address": "鹿児島県肝属郡錦江町神川3306-18"
    },
    "きんぽう木花館": {
      "name": "きんぽう木花館",
      "lat": "31.27.43",
      "lng": "130.20.52",
      "park": "57",
      "address": "鹿児島県南さつま市金峰町池辺1383"
    },
    "くにの松原おおさき": {
      "name": "くにの松原おおさき",
      "lat": "31.26.03",
      "lng": "131.01.59",
      "park": "158",
      "address": "鹿児島県曽於郡大崎町神領字高尾2388-11"
    },
    "黒之瀬戸だんだん市場": {
      "name": "黒之瀬戸だんだん市場",
      "lat": "32.06.17",
      "lng": "130.10.23",
      "park": "46",
      "address": "鹿児島県出水郡長島町山門野4093"
    },
    "桜島": {
      "name": "桜島",
      "lat": "31.35.09",
      "lng": "130.36.04",
      "park": "75",
      "address": "鹿児島県鹿児島市桜島横山町1722-48"
    },
    "すえよし": {
      "name": "すえよし",
      "lat": "31.41.05",
      "lng": "130.58.21",
      "park": "45",
      "address": "鹿児島県曽於市末吉町深川11051-1"
    },
    "たからべ": {
      "name": "たからべ",
      "lat": "31.43.31",
      "lng": "131.00.04",
      "park": "28",
      "address": "鹿児島県曽於市財部町南俣17-1"
    },
    "たるみず": {
      "name": "たるみず",
      "lat": "31.33.19",
      "lng": "130.44.49",
      "park": "123",
      "address": "鹿児島県垂水市牛根麓1038-1"
    },
    "長島": {
      "name": "長島",
      "lat": "32.09.30",
      "lng": "130.06.41",
      "park": "28",
      "address": "鹿児島県出水郡長島町指江1576-1"
    },
    "根占": {
      "name": "根占",
      "lat": "31.10.55",
      "lng": "130.46.11",
      "park": "71",
      "address": "鹿児島県肝属郡南大隅町根占山本6868"
    },
    "野方あらさの": {
      "name": "野方あらさの",
      "lat": "31.29.47",
      "lng": "130.55.36",
      "park": "45",
      "address": "鹿児島県曽於郡大崎町野方2810-7"
    },
    "樋脇": {
      "name": "樋脇",
      "lat": "31.47.35",
      "lng": "130.24.35",
      "park": "39",
      "address": "鹿児島県薩摩川内市樋脇町市比野156"
    },
    "松山": {
      "name": "松山",
      "lat": "31.34.41",
      "lng": "131.02.41",
      "park": "91",
      "address": "鹿児島県志布志市松山町新橋1526-1"
    },
    "山川港活お海道": {
      "name": "山川港活お海道",
      "lat": "31.11.58",
      "lng": "130.38.14",
      "park": "50",
      "address": "鹿児島県指宿市山川金生町1-10"
    }
  },
  "沖縄県": {
    "いとまん": {
      "name": "いとまん",
      "lat": "26.08.04",
      "lng": "127.39.47",
      "park": "520",
      "address": "沖縄県糸満市西崎町4-19-1"
    },
    "おおぎみ": {
      "name": "おおぎみ",
      "lat": "26.41.10",
      "lng": "128.06.36",
      "park": "28",
      "address": "沖縄県国頭郡大宜味村字根路銘1373"
    },
    "かでな": {
      "name": "かでな",
      "lat": "26.21.51",
      "lng": "127.46.34",
      "park": "66",
      "address": "沖縄県中頭郡嘉手納町字屋良1026-3"
    },
    "喜名番所": {
      "name": "喜名番所",
      "lat": "26.23.43",
      "lng": "127.45.36",
      "park": "39",
      "address": "沖縄県中頭郡読谷村喜名1-2"
    },
    "ぎのざ": {
      "name": "ぎのざ",
      "lat": "26.28.12",
      "lng": "127.57.15",
      "park": "47",
      "address": "沖縄県国頭郡宜野座村漢那1633"
    },
    "許田": {
      "name": "許田",
      "lat": "26.32.53",
      "lng": "127.58.16",
      "park": "104",
      "address": "沖縄県名護市許田17-1"
    },
    "豊崎": {
      "name": "豊崎",
      "lat": "26.09.13",
      "lng": "127.39.26",
      "park": "176",
      "address": "沖縄県豊見城市豊崎3-39"
    },
    "ゆいゆい国頭": {
      "name": "ゆいゆい国頭",
      "lat": "26.43.41",
      "lng": "128.10.16",
      "park": "67",
      "address": "沖縄県国頭郡国頭村字奥間1605"
    }
  }
}